{"clubs": [{"activated_at": "2013-02-08T15:19:11Z", "contact": {"skype": null}, "venue": {"website": null, "city": "Southampton", "name": "Netley Abbey Junior School", "country": {"code": "GB", "name": "United Kingdom"}, "location": {"lat": 50.8787146, "lng": -1.3488851}, "postcode": "SO31 5EL", "address_2": "Netley Abbey", "address_1": "Westwood Road"}, "id": "51b5e6dc4682591c445ebefa", "uri": "/clubs/51b5e6dc4682591c445ebefa"}, {"activated_at": "2013-02-10T18:15:27Z", "contact": {"skype": null}, "venue": {"website": null, "city": "Birmingham", "name": "Abbey Catholic Primary", "country": {"code": "GB", "name": "United Kingdom"}, "location": {"lat": 52.5295014, "lng": -1.8367626}, "postcode": "B23 6QL", "address_2": "Erdington", "address_1": "Sutton Road"}, "id": "51b5e6dc4682591c445ebefd", "uri": "/clubs/51b5e6dc4682591c445ebefd"}, {"activated_at": "2013-02-12T12:09:30Z", "contact": {"skype": null}, "venue": {"website": null, "city": "Chryston", "name": "Chryston Primary School", "country": {"code": "GB", "name": "United Kingdom"}, "location": {"lat": 55.9032399, "lng": -4.1079026}, "postcode": "G69 9DW", "address_2": "", "address_1": "Lindsaybeg Road"}, "id": "51b5e6dd4682591c445ebf00", "uri": "/clubs/51b5e6dd4682591c445ebf00"}, {"activated_at": "2013-02-15T10:13:09Z", "contact": {"skype": null}, "venue": {"website": null, "city": "Kingston upon Thames", "name": "Latchmere School", "country": {"code": "GB", "name": "United Kingdom"}, "location": {"lat": 51.4221393, "lng": -0.2963157}, "postcode": "KT2 5TT", "address_2": "", "address_1": "Latchmere School "}, "id": "51b5e6dd4682591c445ebf03", "uri": "/clubs/51b5e6dd4682591c445ebf03"}, {"activated_at": "2013-02-22T08:25:49Z", "contact": {"skype": null}, "venue": {"website": null, "city": "Louth", "name": "Cotterill Home School", "country": {"code": "GB", "name": "United Kingdom"}, "location": {"lat": 53.3725946, "lng": 0.0132442}, "postcode": "LN11 7AP", "address_2": "", "address_1": "87 Eastfield Road"}, "id": "51b5e6dd4682591c445ebf06", "uri": "/clubs/51b5e6dd4682591c445ebf06"}, {"activated_at": "2013-02-24T23:41:17Z", "contact": {"skype": null}, "venue": {"website": null, "city": "Peterborough", "name": "Welbourne Primary", "country": {"code": "GB", "name": "United Kingdom"}, "location": {"lat": 52.6182977, "lng": -0.2679781}, "postcode": "PE4 6NR", "address_2": "Werrington", "address_1": "Goodwin Walk"}, "id": "51b5e6dd4682591c445ebf09", "uri": "/clubs/51b5e6dd4682591c445ebf09"}, {"activated_at": "2013-02-27T05:27:23Z", "contact": {"skype": null}, "venue": {"website": null, "city": "Bangna", "name": "Bangkok Patana School", "country": {"code": "GB", "name": "United Kingdom"}, "location": {"lat": 51.2504884, "lng": -0.1884896}, "postcode": "RH2 0HG", "address_2": "", "address_1": "643 Lasalle Road"}, "id": "51b5e6dd4682591c445ebf0c", "uri": "/clubs/51b5e6dd4682591c445ebf0c"}, {"activated_at": "2013-01-06T20:26:15Z", "contact": {"skype": null}, "venue": {"website": null, "city": "Nottingham", "name": "Blesses Robert Widmerpool", "country": {"code": "GB", "name": "United Kingdom"}, "location": {"lat": 52.8976313, "lng": -1.1784077}, "postcode": "NG11 9BH", "address_2": "Clifton", "address_1": "Listowel Crescent"}, "id": "51b5e6dd4682591c445ebf0f", "uri": "/clubs/51b5e6dd4682591c445ebf0f"}, {"activated_at": "2013-01-08T20:21:21Z", "contact": {"skype": null}, "venue": {"website": null, "city": "Brighton", "name": "Stanford Junior School", "country": {"code": "GB", "name": "United Kingdom"}, "location": {"lat": 50.8362693, "lng": -0.148036}, "postcode": "BN1 5PR", "address_2": "", "address_1": "Stanford Road"}, "id": "51b5e6dd4682591c445ebf12", "uri": "/clubs/51b5e6dd4682591c445ebf12"}, {"activated_at": "2013-01-24T08:40:50Z", "contact": {"skype": null}, "venue": {"website": null, "city": "Oxford", "name": "Rye St Antony", "country": {"code": "GB", "name": "United Kingdom"}, "location": {"lat": 51.7595493, "lng": -1.2257778}, "postcode": "OX3 0BY", "address_2": "Headington", "address_1": "Pullen's Lane"}, "id": "51b5e6dd4682591c445ebf15", "uri": "/clubs/51b5e6dd4682591c445ebf15"}, {"activated_at": "2013-01-30T10:07:54Z", "contact": {"skype": null}, "venue": {"website": null, "city": "Cambridge", "name": "Morley Memorial Primary School", "country": {"code": "GB", "name": "United Kingdom"}, "location": {"lat": 52.1864862, "lng": 0.1448466}, "postcode": "CB1 7TX", "address_2": "", "address_1": "91 Blinco Grove"}, "id": "51b5e6de4682591c445ebf18", "uri": "/clubs/51b5e6de4682591c445ebf18"}, {"activated_at": "2013-03-06T11:22:04Z", "contact": {"skype": null}, "venue": {"website": null, "city": "Truro", "name": "Bosvigo School", "country": {"code": "GB", "name": "United Kingdom"}, "location": {"lat": 50.2620717, "lng": -5.0595204}, "postcode": "TR1 3BJ", "address_2": "", "address_1": "Chapel Hill"}, "id": "51b5e6de4682591c445ebf1b", "uri": "/clubs/51b5e6de4682591c445ebf1b"}, {"activated_at": "2013-03-08T13:21:29Z", "contact": {"skype": null}, "venue": {"website": null, "city": "Winchester", "name": "Sparsholt C of E Primary School", "country": {"code": "GB", "name": "United Kingdom"}, "location": {"lat": 51.078796, "lng": -1.378772}, "postcode": "SO21 2NR", "address_2": "Sparsholt", "address_1": "Woodman Lane"}, "id": "51b5e6de4682591c445ebf1e", "uri": "/clubs/51b5e6de4682591c445ebf1e"}, {"activated_at": "2013-04-09T12:38:13Z", "contact": {"skype": null}, "venue": {"website": "http://www.billesdon.leics.sch.uk", "city": "Leicester", "name": "Billesdon Parochial Primary School", "country": {"code": "GB", "name": "United Kingdom"}, "location": {"lat": 52.6101644, "lng": -0.948498}, "postcode": "LE7 9AG", "address_2": "", "address_1": "Gaulby Road"}, "id": "51b5e6de4682591c445ebf21", "uri": "/clubs/51b5e6de4682591c445ebf21"}, {"activated_at": "2013-05-09T06:53:13Z", "contact": {"skype": null}, "venue": {"website": null, "city": "Barnsley", "name": "Cudworth Churchfield Primary School", "country": {"code": "GB", "name": "United Kingdom"}, "location": {"lat": 53.5752706, "lng": -1.4135755}, "postcode": "S72 8JR", "address_2": null, "address_1": "Snydale Road"}, "id": "51b5e6de4682591c445ebf24", "uri": "/clubs/51b5e6de4682591c445ebf24"}, {"activated_at": "2013-04-12T10:34:44Z", "contact": {"skype": null}, "venue": {"website": "http://www.stmaryredcliffeprimary.co.uk", "city": "Bristol", "name": "St Mary Redcliffe Church of England Primary School", "country": {"code": "GB", "name": "United Kingdom"}, "location": {"lat": 51.4417751, "lng": -2.5903437}, "postcode": "BS3 4DP", "address_2": null, "address_1": "Windmill Close"}, "id": "51b5e6de4682591c445ebf27", "uri": "/clubs/51b5e6de4682591c445ebf27"}, {"activated_at": "2013-04-18T10:23:41Z", "contact": {"skype": null}, "venue": {"website": null, "city": "Ilford", "name": "Fairlop Primary School", "country": {"code": "GB", "name": "United Kingdom"}, "location": {"lat": 51.5999481, "lng": 0.0806506}, "postcode": "IG6 2LH", "address_2": null, "address_1": "Colvin Gardens"}, "id": "51b5e6de4682591c445ebf2a", "uri": "/clubs/51b5e6de4682591c445ebf2a"}, {"activated_at": "2013-04-22T21:20:20Z", "contact": {"skype": null}, "venue": {"website": "http://www.northfold.lancsngfl.ac.uk/", "city": "Thornton-Cleveleys", "name": "Northfold Community Primary School", "country": {"code": "GB", "name": "United Kingdom"}, "location": {"lat": 53.8854155, "lng": -3.0352632}, "postcode": "FY5 2NL", "address_2": null, "address_1": "Ringway"}, "id": "51b5e6df4682591c445ebf2d", "uri": "/clubs/51b5e6df4682591c445ebf2d"}, {"activated_at": "2013-04-23T11:26:12Z", "contact": {"skype": null}, "venue": {"website": "http://www.harwood-meadows.bolton.sch.uk", "city": "Bolton", "name": "Harwood Meadows Primary School", "country": {"code": "GB", "name": "United Kingdom"}, "location": {"lat": 53.5967631, "lng": -2.3811507}, "postcode": "BL2 3PS", "address_2": null, "address_1": "Orchard Gardens"}, "id": "51b5e6df4682591c445ebf30", "uri": "/clubs/51b5e6df4682591c445ebf30"}, {"activated_at": "2013-05-13T12:09:33Z", "contact": {"skype": null}, "venue": {"website": "http://www.heatonavenue.kgfl.digitalbrain.com", "city": null, "name": "Heaton Avenue Primary", "country": {"code": "GB", "name": "United Kingdom"}, "location": {"lat": 53.7245716, "lng": -1.7251509}, "postcode": "BD19 3AE", "address_2": null, "address_1": null}, "id": "51b5e6df4682591c445ebf33", "uri": "/clubs/51b5e6df4682591c445ebf33"}, {"activated_at": "2013-05-13T18:23:44Z", "contact": {"skype": null}, "venue": {"website": null, "city": "Middlesbrough", "name": "St Pius X RC Primary School", "country": {"code": "GB", "name": "United Kingdom"}, "location": {"lat": 54.5538318, "lng": -1.2043902}, "postcode": "TS3 7HD", "address_2": null, "address_1": "Amersham Road"}, "id": "51b5e6df4682591c445ebf36", "uri": "/clubs/51b5e6df4682591c445ebf36"}, {"activated_at": "2013-05-14T08:29:00Z", "contact": {"skype": null}, "venue": {"website": null, "city": null, "name": "Newton Primary School", "country": {"code": "GB", "name": "United Kingdom"}, "location": {"lat": 52.2194337, "lng": -0.1385924}, "postcode": "PE19 6TL", "address_2": null, "address_1": null}, "id": "51b5e6df4682591c445ebf39", "uri": "/clubs/51b5e6df4682591c445ebf39"}, {"activated_at": "2013-05-14T09:13:52Z", "contact": {"skype": null}, "venue": {"website": null, "city": null, "name": "The Hayes Primary School, Kenley", "country": {"code": "GB", "name": "United Kingdom"}, "location": {"lat": 51.317339, "lng": -0.1087522}, "postcode": "CR8 5JN", "address_2": null, "address_1": null}, "id": "51b5e6df4682591c445ebf3c", "uri": "/clubs/51b5e6df4682591c445ebf3c"}, {"activated_at": "2013-05-15T19:18:57Z", "contact": {"skype": null}, "venue": {"website": null, "city": "Woodbridge", "name": "Hollesley Primary School", "country": {"code": "GB", "name": "United Kingdom"}, "location": {"lat": 52.0470926, "lng": 1.4337778}, "postcode": "IP12 3RE", "address_2": "", "address_1": "School Lane"}, "id": "51b5e6df4682591c445ebf3f", "uri": "/clubs/51b5e6df4682591c445ebf3f"}, {"activated_at": "2013-05-15T20:57:57Z", "contact": {"skype": null}, "venue": {"website": null, "city": null, "name": "The Emmbrook School", "country": {"code": "GB", "name": "United Kingdom"}, "location": {"lat": 51.4237814, "lng": -0.8639726999999999}, "postcode": "RG411HR", "address_2": null, "address_1": null}, "id": "51b5e6e04682591c445ebf42", "uri": "/clubs/51b5e6e04682591c445ebf42"}, {"activated_at": "2013-05-15T14:31:54Z", "contact": {"skype": null}, "venue": {"website": null, "city": "Solihull", "name": "St George and St Teresa Catholic Primary School", "country": {"code": "GB", "name": "United Kingdom"}, "location": {"lat": 52.3796137, "lng": -1.7570532}, "postcode": "B93 8PA", "address_2": null, "address_1": "Mill Lane"}, "id": "51b5e6e04682591c445ebf45", "uri": "/clubs/51b5e6e04682591c445ebf45"}, {"activated_at": "2013-05-16T12:29:17Z", "contact": {"skype": null}, "venue": {"website": null, "city": null, "name": "The Hawthorns School", "country": {"code": "GB", "name": "United Kingdom"}, "location": {"lat": 51.4171297, "lng": -0.8651441999999999}, "postcode": "RG41 3PQ", "address_2": null, "address_1": null}, "id": "51b5e6e04682591c445ebf48", "uri": "/clubs/51b5e6e04682591c445ebf48"}, {"activated_at": "2013-05-16T17:36:40Z", "contact": {"skype": null}, "venue": {"website": null, "city": null, "name": "Whinstone primary", "country": {"code": "GB", "name": "United Kingdom"}, "location": {"lat": 54.5236628, "lng": -1.3077825}, "postcode": "Ts170rj", "address_2": null, "address_1": null}, "id": "51b5e6e04682591c445ebf4b", "uri": "/clubs/51b5e6e04682591c445ebf4b"}, {"activated_at": "2013-05-16T18:51:53Z", "contact": {"skype": null}, "venue": {"website": "http://www.linton.derbyshire.sch.uk", "city": "Swadlincote", "name": "Linton Primary School", "country": {"code": "GB", "name": "United Kingdom"}, "location": {"lat": 52.7343448, "lng": -1.5640525}, "postcode": "DE12 6QA", "address_2": null, "address_1": "Main Street"}, "id": "51b5e6e14682591c445ebf4e", "uri": "/clubs/51b5e6e14682591c445ebf4e"}, {"activated_at": "2013-05-16T21:30:53Z", "contact": {"skype": null}, "venue": {"website": null, "city": null, "name": "Kensington primary school", "country": {"code": "GB", "name": "United Kingdom"}, "location": {"lat": 51.5425634, "lng": 0.0572323}, "postcode": "E12 6nn", "address_2": null, "address_1": null}, "id": "51b5e6e14682591c445ebf51", "uri": "/clubs/51b5e6e14682591c445ebf51"}, {"activated_at": "2013-05-17T13:47:04Z", "contact": {"skype": null}, "venue": {"website": "http://www.tidbury-green.solihull.sch.uk/", "city": null, "name": "Tidbury Green School", "country": {"code": "GB", "name": "United Kingdom"}, "location": {"lat": 52.3806729, "lng": -1.8511795}, "postcode": "B90 1QW", "address_2": null, "address_1": null}, "id": "51b5e6e14682591c445ebf54", "uri": "/clubs/51b5e6e14682591c445ebf54"}, {"activated_at": "2013-05-17T14:41:54Z", "contact": {"skype": null}, "venue": {"website": "http://www.arkovalprimary.org", "city": "Croydon", "name": "ARK Oval Primary Academy", "country": {"code": "GB", "name": "United Kingdom"}, "location": {"lat": 51.3787392, "lng": -0.0892499}, "postcode": "CR0 6BA", "address_2": null, "address_1": "98 Cherry Orchard Road"}, "id": "51b5e6e14682591c445ebf57", "uri": "/clubs/51b5e6e14682591c445ebf57"}, {"activated_at": "2013-05-17T21:02:22Z", "contact": {"skype": null}, "venue": {"website": null, "city": null, "name": "Harris Academy Purley", "country": {"code": "GB", "name": "United Kingdom"}, "location": {"lat": 51.3531227, "lng": -0.1082843}, "postcode": "CR2 6DT", "address_2": null, "address_1": null}, "id": "51b5e6e14682591c445ebf5a", "uri": "/clubs/51b5e6e14682591c445ebf5a"}, {"activated_at": "2013-05-18T12:38:56Z", "contact": {"skype": null}, "venue": {"website": null, "city": null, "name": "Bridgewater Primary School", "country": {"code": "GB", "name": "United Kingdom"}, "location": {"lat": 52.2490382, "lng": -0.8166342999999999}, "postcode": "Nn3 9sl", "address_2": null, "address_1": null}, "id": "51b5e6e14682591c445ebf5d", "uri": "/clubs/51b5e6e14682591c445ebf5d"}, {"activated_at": "2013-05-19T20:12:52Z", "contact": {"skype": null}, "venue": {"website": null, "city": null, "name": "Carr Head Primary School", "country": {"code": "GB", "name": "United Kingdom"}, "location": {"lat": 53.840943, "lng": -2.9877121}, "postcode": "FY6 8JB", "address_2": null, "address_1": null}, "id": "51b5e6e14682591c445ebf60", "uri": "/clubs/51b5e6e14682591c445ebf60"}, {"activated_at": "2012-12-22T14:03:22Z", "contact": {"skype": null}, "venue": {"website": null, "city": "Nottingham", "name": "West Bridgford Junior School", "country": {"code": "GB", "name": "United Kingdom"}, "location": {"lat": 52.9258504, "lng": -1.1243968}, "postcode": "NG2 6DB", "address_2": "West Bridgford", "address_1": "Exchange Road"}, "id": "51b5e6e24682591c445ebf63", "uri": "/clubs/51b5e6e24682591c445ebf63"}, {"activated_at": "2013-05-22T11:49:34Z", "contact": {"skype": null}, "venue": {"website": null, "city": "Reading", "name": "Polehampton Church of England Junior School", "country": {"code": "GB", "name": "United Kingdom"}, "location": {"lat": 51.48354699999999, "lng": -0.863583}, "postcode": "RG10 9AX", "address_2": "", "address_1": "Kibblewhite Crescent"}, "id": "51b5e6e24682591c445ebf66", "uri": "/clubs/51b5e6e24682591c445ebf66"}, {"activated_at": "2013-05-20T10:39:51Z", "contact": {"skype": null}, "venue": {"website": null, "city": "Cambridge", "name": "Tom Finnigan's Home", "country": {"code": "GB", "name": "United Kingdom"}, "location": {"lat": 52.18539639999999, "lng": 0.1739208}, "postcode": "CB1 9NU", "address_2": "", "address_1": "4 Applewood Close"}, "id": "51b5e6e24682591c445ebf69", "uri": "/clubs/51b5e6e24682591c445ebf69"}, {"activated_at": "2013-05-23T18:55:17Z", "contact": {"skype": null}, "venue": {"website": "http://www.duchy.devon.sch.uk", "city": null, "name": "The Duchy School", "country": {"code": "GB", "name": "United Kingdom"}, "location": {"lat": 50.8226149, "lng": -3.4288623}, "postcode": "EX5 4RF", "address_2": null, "address_1": null}, "id": "51b5e6e24682591c445ebf6c", "uri": "/clubs/51b5e6e24682591c445ebf6c"}, {"activated_at": "2013-05-21T16:05:08Z", "contact": {"skype": null}, "venue": {"website": "http://www.fendraytonschool.co.uk", "city": null, "name": "Fen Drayton Primary School", "country": {"code": "GB", "name": "United Kingdom"}, "location": {"lat": 52.2978147, "lng": -0.043075}, "postcode": "CB24 4SL", "address_2": null, "address_1": null}, "id": "51b5e6e24682591c445ebf6f", "uri": "/clubs/51b5e6e24682591c445ebf6f"}, {"activated_at": "2013-05-22T10:03:38Z", "contact": {"skype": null}, "venue": {"website": null, "city": null, "name": "Gladesmore IT Academy", "country": {"code": "GB", "name": "United Kingdom"}, "location": {"lat": 51.5800647, "lng": -0.0660825}, "postcode": "N15 6EB ", "address_2": null, "address_1": null}, "id": "51b5e6e34682591c445ebf72", "uri": "/clubs/51b5e6e34682591c445ebf72"}, {"activated_at": "2013-05-22T12:35:56Z", "contact": {"skype": null}, "venue": {"website": "http://www.bunwell.norfolk.sch.uk", "city": "Norwich", "name": "Bunwell Primary School", "country": {"code": "GB", "name": "United Kingdom"}, "location": {"lat": 52.4941651, "lng": 1.1395376}, "postcode": "NR16 1SN", "address_2": null, "address_1": "The Turnpike"}, "id": "51b5e6e34682591c445ebf75", "uri": "/clubs/51b5e6e34682591c445ebf75"}, {"activated_at": "2013-05-23T08:54:17Z", "contact": {"skype": null}, "venue": {"website": "http://www.mount-hawke.cornwall.sch.uk", "city": "Truro", "name": "Mount Hawke Academy", "country": {"code": "GB", "name": "United Kingdom"}, "location": {"lat": 50.28324509999999, "lng": -5.206339}, "postcode": "TR4 8BA", "address_2": null, "address_1": "Rodda's Road"}, "id": "51b5e6e34682591c445ebf78", "uri": "/clubs/51b5e6e34682591c445ebf78"}, {"activated_at": "2013-05-23T17:34:47Z", "contact": {"skype": null}, "venue": {"website": "http://www.crownlane.lambeth.sch.uk/", "city": "London", "name": "Crown Lane Primary School", "country": {"code": "GB", "name": "United Kingdom"}, "location": {"lat": 51.4231391, "lng": -0.1106399}, "postcode": "SW16 3HX", "address_2": "", "address_1": "Crown Lane"}, "id": "51b5e6e34682591c445ebf7b", "uri": "/clubs/51b5e6e34682591c445ebf7b"}, {"activated_at": "2013-06-03T12:22:18Z", "contact": {"skype": null}, "venue": {"website": null, "city": "Manchester", "name": "The Divine Mercy Roman Catholic Primary School", "country": {"code": "GB", "name": "United Kingdom"}, "location": {"lat": 53.4505539, "lng": -2.2363049}, "postcode": "M14 7SH", "address_2": null, "address_1": "20 Blue Moon Way"}, "id": "51b5e6e34682591c445ebf7f", "uri": "/clubs/51b5e6e34682591c445ebf7f"}, {"activated_at": "2013-02-25T10:48:15Z", "contact": {"skype": null}, "venue": {"website": null, "city": "Wimbledon", "name": "Willington School", "country": {"code": "GB", "name": "United Kingdom"}, "location": {"lat": 51.4244831, "lng": -0.205121}, "postcode": "SW19 7QQ", "address_2": "", "address_1": "Worcestor Rd"}, "id": "51b5e6e34682591c445ebf82", "uri": "/clubs/51b5e6e34682591c445ebf82"}, {"activated_at": "2013-05-21T16:21:39Z", "contact": {"skype": null}, "venue": {"website": null, "city": "London", "name": "Poplar Primary School", "country": {"code": "GB", "name": "United Kingdom"}, "location": {"lat": 51.4050679, "lng": -0.1994086}, "postcode": "SW19 3JZ", "address_2": null, "address_1": "Poplar Road South"}, "id": "51b5e6e44682591c445ebf85", "uri": "/clubs/51b5e6e44682591c445ebf85"}, {"activated_at": "2013-05-28T11:41:45Z", "contact": {"skype": null}, "venue": {"website": null, "city": null, "name": "the leys", "country": {"code": "GB", "name": "United Kingdom"}, "location": {"lat": 52.19701, "lng": 0.1217942}, "postcode": "CB2 7AD", "address_2": null, "address_1": null}, "id": "51b5e6e44682591c445ebf88", "uri": "/clubs/51b5e6e44682591c445ebf88"}, {"activated_at": "2013-05-29T08:22:28Z", "contact": {"skype": null}, "venue": {"website": null, "city": null, "name": "Pinewood", "country": {"code": "GB", "name": "United Kingdom"}, "location": {"lat": 51.58148749999999, "lng": -1.6671949}, "postcode": "SN6 8HZ", "address_2": null, "address_1": null}, "id": "51b5e6e44682591c445ebf8b", "uri": "/clubs/51b5e6e44682591c445ebf8b"}, {"activated_at": "2013-05-29T12:07:36Z", "contact": {"skype": null}, "venue": {"website": "http://www.sarratt.herts.sch.uk", "city": "Rickmansworth", "name": "Sarratt Church of England Primary School", "country": {"code": "GB", "name": "United Kingdom"}, "location": {"lat": 51.6894521, "lng": -0.498824}, "postcode": "WD3 6AS", "address_2": null, "address_1": "The Green"}, "id": "51b5e6e44682591c445ebf8e", "uri": "/clubs/51b5e6e44682591c445ebf8e"}, {"activated_at": "2013-05-30T09:20:46Z", "contact": {"skype": null}, "venue": {"website": null, "city": "London", "name": "Central Enfield City Learning Centre", "country": {"code": "GB", "name": "United Kingdom"}, "location": {"lat": 51.6573591, "lng": -0.0822101}, "postcode": "En2 0AB", "address_2": "", "address_1": "113 Parsonage Lane"}, "id": "51b5e6e44682591c445ebf91", "uri": "/clubs/51b5e6e44682591c445ebf91"}, {"activated_at": "2013-05-30T13:20:34Z", "contact": {"skype": null}, "venue": {"website": null, "city": null, "name": "St. Stephens C of E Primary School", "country": {"code": "GB", "name": "United Kingdom"}, "location": {"lat": 51.2201134, "lng": -0.0439877}, "postcode": "RH9 8HR", "address_2": null, "address_1": null}, "id": "51b5e6e44682591c445ebf94", "uri": "/clubs/51b5e6e44682591c445ebf94"}, {"activated_at": "2013-06-01T15:06:37Z", "contact": {"skype": null}, "venue": {"website": null, "city": null, "name": "A School", "country": {"code": "GB", "name": "United Kingdom"}, "location": {"lat": 52.6863768, "lng": -0.018926}, "postcode": "PE12 0NL", "address_2": null, "address_1": null}, "id": "51b5e6e44682591c445ebf97", "uri": "/clubs/51b5e6e44682591c445ebf97"}, {"activated_at": "2013-06-05T12:27:14Z", "contact": {"skype": null}, "venue": {"website": "http://www.st-lukesislington.co.uk", "city": "London", "name": "St Luke's CofE Primary School", "country": {"code": "GB", "name": "United Kingdom"}, "location": {"lat": 51.52655859999999, "lng": -0.0926639}, "postcode": "EC1V 3SJ", "address_2": "", "address_1": "Radnor Street"}, "id": "51b5e6e44682591c445ebf9a", "uri": "/clubs/51b5e6e44682591c445ebf9a"}, {"activated_at": "2013-06-04T09:16:49Z", "contact": {"skype": null}, "venue": {"website": null, "city": null, "name": "St Bartholomew's CE Primary School", "country": {"code": "GB", "name": "United Kingdom"}, "location": {"lat": 52.80656889999999, "lng": -0.2415}, "postcode": "PE11 3QJ", "address_2": null, "address_1": null}, "id": "51b5e6e54682591c445ebf9d", "uri": "/clubs/51b5e6e54682591c445ebf9d"}, {"activated_at": "2013-06-04T15:45:58Z", "contact": {"skype": null}, "venue": {"website": null, "city": null, "name": "Alfred Sutton School", "country": {"code": "GB", "name": "United Kingdom"}, "location": {"lat": 51.44850659999999, "lng": -0.9375425000000001}, "postcode": "RG6 1JR", "address_2": null, "address_1": null}, "id": "51b5e6e54682591c445ebfa0", "uri": "/clubs/51b5e6e54682591c445ebfa0"}, {"activated_at": "2013-06-05T12:45:36Z", "contact": {"skype": null}, "venue": {"website": null, "city": null, "name": "Room IT12, Herne Bay High School", "country": {"code": "GB", "name": "United Kingdom"}, "location": {"lat": 51.3616258, "lng": 1.1125533}, "postcode": "CT6 7NS", "address_2": null, "address_1": null}, "id": "51b5e6e54682591c445ebfa3", "uri": "/clubs/51b5e6e54682591c445ebfa3"}, {"activated_at": "2013-06-05T15:41:15Z", "contact": {"skype": null}, "venue": {"website": null, "city": null, "name": "KLT Primary", "country": {"code": "GB", "name": "United Kingdom"}, "location": {"lat": 52.9994832, "lng": -0.3641082}, "postcode": "NG34 9NU", "address_2": null, "address_1": null}, "id": "51b5e6e54682591c445ebfa6", "uri": "/clubs/51b5e6e54682591c445ebfa6"}, {"activated_at": "2012-11-27T10:24:46Z", "contact": {"skype": null}, "venue": {"website": null, "city": "Winchester", "name": "Western Primary School", "country": {"code": "GB", "name": "United Kingdom"}, "location": {"lat": 51.0657326, "lng": -1.3334647}, "postcode": "SO22 5AR", "address_2": "", "address_1": "Browning Drive"}, "id": "51b5e6e54682591c445ebfad", "uri": "/clubs/51b5e6e54682591c445ebfad"}, {"activated_at": "2013-06-06T13:25:37Z", "contact": {"skype": null}, "venue": {"website": null, "city": "Bolton", "name": "St Maxentius CofE Primary School", "country": {"code": "GB", "name": "United Kingdom"}, "location": {"lat": 53.6096625, "lng": -2.3962495}, "postcode": "BL2 4AE", "address_2": null, "address_1": "New Heys Way"}, "id": "51b5e6e64682591c445ebfb0", "uri": "/clubs/51b5e6e64682591c445ebfb0"}, {"activated_at": "2013-06-06T13:29:44Z", "contact": {"skype": null}, "venue": {"website": "http://www.ladybridge.bolton.sch.uk", "city": "Bolton", "name": "Ladybridge Community Primary School", "country": {"code": "GB", "name": "United Kingdom"}, "location": {"lat": 53.5694015, "lng": -2.4719205}, "postcode": "BL3 4NB", "address_2": null, "address_1": "Broadford Road"}, "id": "51b5e6e64682591c445ebfb6", "uri": "/clubs/51b5e6e64682591c445ebfb6"}, {"activated_at": "2013-06-06T13:29:39Z", "contact": {"skype": null}, "venue": {"website": null, "city": "Bolton", "name": "St Peter's Smithills Dean CofE Primary School", "country": {"code": "GB", "name": "United Kingdom"}, "location": {"lat": 53.60106219999999, "lng": -2.4612364}, "postcode": "BL1 6LA", "address_2": null, "address_1": "Limefield Road"}, "id": "51b5e6e64682591c445ebfb9", "uri": "/clubs/51b5e6e64682591c445ebfb9"}, {"activated_at": "2013-06-06T13:44:45Z", "contact": {"skype": null}, "venue": {"website": null, "city": "Reading", "name": "Oxford Road Community School", "country": {"code": "GB", "name": "United Kingdom"}, "location": {"lat": 51.4557328, "lng": -0.9880084000000001}, "postcode": "RG1 7PJ", "address_2": null, "address_1": "146 Oxford Road"}, "id": "51b5e6e64682591c445ebfbc", "uri": "/clubs/51b5e6e64682591c445ebfbc"}, {"activated_at": "2013-06-06T18:16:09Z", "contact": {"skype": null}, "venue": {"website": null, "city": null, "name": "Brookside school", "country": {"code": "GB", "name": "United Kingdom"}, "location": {"lat": 51.1168035, "lng": -2.748547}, "postcode": "BA16 0PR", "address_2": null, "address_1": null}, "id": "51b5e6e64682591c445ebfbf", "uri": "/clubs/51b5e6e64682591c445ebfbf"}, {"activated_at": "2013-06-06T19:23:06Z", "contact": {"skype": null}, "venue": {"website": null, "city": "Walsall", "name": "Pheasey Park Farm Primary School", "country": {"code": "GB", "name": "United Kingdom"}, "location": {"lat": 52.56090529999999, "lng": -1.9080614}, "postcode": "B43 7DH", "address_2": "Great Barr", "address_1": "Wimperis Way"}, "id": "51b5e6e74682591c445ebfc2", "uri": "/clubs/51b5e6e74682591c445ebfc2"}, {"activated_at": "2013-06-07T11:19:01Z", "contact": {"skype": null}, "venue": {"website": null, "city": "Moreton", "name": "Clare Mount Specialist Sports College", "country": {"code": "GB", "name": "United Kingdom"}, "location": {"lat": 53.4048168, "lng": -3.0942898}, "postcode": "CH46 9PA", "address_2": "", "address_1": "fender Lane"}, "id": "51b5e6e74682591c445ebfc5", "uri": "/clubs/51b5e6e74682591c445ebfc5"}, {"activated_at": "2013-06-07T12:11:45Z", "contact": {"skype": null}, "venue": {"website": "http://www.barley-hill.oxon.sch.uk", "city": "Thame", "name": "Barley Hill Primary School", "country": {"code": "GB", "name": "United Kingdom"}, "location": {"lat": 51.7472056, "lng": -0.9713959}, "postcode": "OX9 3DH", "address_2": null, "address_1": "Ludsden Grove"}, "id": "51b5e6e74682591c445ebfc8", "uri": "/clubs/51b5e6e74682591c445ebfc8"}, {"activated_at": "2013-06-07T17:49:54Z", "contact": {"skype": null}, "venue": {"website": null, "city": null, "name": "Eldon junior school", "country": {"code": "GB", "name": "United Kingdom"}, "location": {"lat": 51.6290742, "lng": -0.04981}, "postcode": "n9 8lg", "address_2": null, "address_1": null}, "id": "51b5e6e74682591c445ebfcb", "uri": "/clubs/51b5e6e74682591c445ebfcb"}, {"activated_at": "2013-06-09T14:16:30Z", "contact": {"skype": null}, "venue": {"website": "http://www.birchwood.suffolk.dbprimary.com", "city": "Ipswich", "name": "Birchwood Primary School", "country": {"code": "GB", "name": "United Kingdom"}, "location": {"lat": 52.0612513, "lng": 1.2703781}, "postcode": "IP5 3SP", "address_2": null, "address_1": "Valiant Road"}, "id": "51b5e6e74682591c445ebfce", "uri": "/clubs/51b5e6e74682591c445ebfce"}, {"activated_at": "2013-06-09T16:16:42Z", "contact": {"skype": null}, "venue": {"website": null, "city": null, "name": "st charles borromeo", "country": {"code": "GB", "name": "United Kingdom"}, "location": {"lat": 51.3742221, "lng": -0.4603231}, "postcode": "kt138jd", "address_2": null, "address_1": null}, "id": "51b5e6e74682591c445ebfd1", "uri": "/clubs/51b5e6e74682591c445ebfd1"}, {"activated_at": "2013-06-09T16:46:51Z", "contact": {"skype": null}, "venue": {"website": "http://www.stjohns-primary.surrey.sch.uk", "city": "Caterham", "name": "St John's CofE Aided Primary School", "country": {"code": "GB", "name": "United Kingdom"}, "location": {"lat": 51.273576, "lng": -0.0723033}, "postcode": "CR3 6RN", "address_2": null, "address_1": "Markfield Road"}, "id": "51b5e6e74682591c445ebfd4", "uri": "/clubs/51b5e6e74682591c445ebfd4"}, {"activated_at": "2013-06-10T09:07:51Z", "contact": {"skype": null}, "venue": {"website": null, "city": "Wirral", "name": "Sandbrook Primary School", "country": {"code": "GB", "name": "United Kingdom"}, "location": {"lat": 53.40221589999999, "lng": -3.0982459}, "postcode": "CH46 9PS", "address_2": null, "address_1": "Stavordale Road"}, "id": "51b5e6e84682591c445ebfd7", "uri": "/clubs/51b5e6e84682591c445ebfd7"}, {"activated_at": "2013-06-10T09:43:31Z", "contact": {"skype": null}, "venue": {"website": null, "city": "Knottingley", "name": "Simpson's Lane Academy", "country": {"code": "GB", "name": "United Kingdom"}, "location": {"lat": 53.7011951, "lng": -1.2601193}, "postcode": "WF11 0PL", "address_2": "", "address_1": "Sycamore Avenue"}, "id": "51b5e6e84682591c445ebfda", "uri": "/clubs/51b5e6e84682591c445ebfda"}, {"activated_at": "2013-06-07T16:56:50Z", "contact": {"skype": null}, "venue": {"website": null, "city": null, "name": "LEY HILL SCHOOL", "country": {"code": "GB", "name": "United Kingdom"}, "location": {"lat": 51.7095548, "lng": -0.5719624}, "postcode": "HP5 1YF", "address_2": null, "address_1": null}, "id": "51b5e6e84682591c445ebfdd", "uri": "/clubs/51b5e6e84682591c445ebfdd"}, {"activated_at": "2013-06-04T11:14:31Z", "contact": {"skype": null}, "venue": {"website": "http://www.morgans.herts.sch.uk/", "city": "Hertford", "name": "Morgans Primary School & Nursery", "country": {"code": "GB", "name": "United Kingdom"}, "location": {"lat": 51.7890116, "lng": -0.07906200000000001}, "postcode": "SG13 8DR", "address_2": null, "address_1": "Morgans Road"}, "id": "51b5e6e84682591c445ebfe0", "uri": "/clubs/51b5e6e84682591c445ebfe0"}, {"activated_at": "2013-06-13T13:56:50Z", "contact": {"skype": null}, "venue": {"website": null, "city": "newcastle upon tyne", "name": "gosforth east middle", "country": {"code": "GB", "name": "United Kingdom"}, "location": {"lat": 55.0142191, "lng": -1.6187736}, "postcode": "ne3 5jt", "address_2": "gosforth", "address_1": "harewood road"}, "id": "51b9cff7d6800509decb6499", "uri": "/clubs/51b9cff7d6800509decb6499"}, {"activated_at": "2013-06-13T14:14:54Z", "contact": {"skype": null}, "venue": {"website": null, "city": "Gainesville", "name": "CodeBootcampUSA", "country": {"code": "GB", "name": "United Kingdom"}, "location": {"lat": 29.6896397, "lng": -82.3944607}, "postcode": "32606", "address_2": "Suite 201", "address_1": "3951 NW 48th Terrace "}, "id": "51b9e2e8d6800509decb649c", "uri": "/clubs/51b9e2e8d6800509decb649c"}, {"activated_at": "2012-10-25T08:38:44Z", "contact": {"skype": null}, "venue": {"website": null, "city": "Romford", "name": "Rise Park Junior School", "country": {"code": "GB", "name": "United Kingdom"}, "location": {"lat": 51.5962335, "lng": 0.1791958}, "postcode": "RM1 4UD", "address_2": "", "address_1": "Annan Way"}, "id": "51b5e6a94682591c445ebb4d", "uri": "/clubs/51b5e6a94682591c445ebb4d"}, {"activated_at": "2012-10-27T19:58:38Z", "contact": {"skype": null}, "venue": {"website": null, "city": "Twyford", "name": "The Colleton Primary School", "country": {"code": "GB", "name": "United Kingdom"}, "location": {"lat": 51.4718118, "lng": -0.8583763999999999}, "postcode": "RG11 0QA", "address_2": "", "address_1": "Colleton Drive"}, "id": "51b5e6a94682591c445ebb50", "uri": "/clubs/51b5e6a94682591c445ebb50"}, {"activated_at": "2012-10-29T01:05:03Z", "contact": {"skype": null}, "venue": {"website": null, "city": "Leicester", "name": "Stafford Leys Community Primary School", "country": {"code": "GB", "name": "United Kingdom"}, "location": {"lat": 52.6225231, "lng": -1.220542}, "postcode": "LE3 3LJ", "address_2": "Leicester Forest East", "address_1": "Staffordleys"}, "id": "51b5e6a94682591c445ebb53", "uri": "/clubs/51b5e6a94682591c445ebb53"}, {"activated_at": "2012-10-29T12:15:02Z", "contact": {"skype": null}, "venue": {"website": null, "city": "Nottingham", "name": "Nottingham Academy Primary School", "country": {"code": "GB", "name": "United Kingdom"}, "location": {"lat": 52.9566685, "lng": -1.1149472}, "postcode": "NG3 7EB", "address_2": "Greenwood Road", "address_1": "Greenwood Road Site, Nottingham Academy"}, "id": "51b5e6aa4682591c445ebb56", "uri": "/clubs/51b5e6aa4682591c445ebb56"}, {"activated_at": "2012-10-29T13:53:20Z", "contact": {"skype": null}, "venue": {"website": null, "city": "London", "name": "St. Stephens Primary School", "country": {"code": "GB", "name": "United Kingdom"}, "location": {"lat": 51.4797895, "lng": -0.1225762}, "postcode": "SW8 1EJ", "address_2": "", "address_1": "Dorset Road"}, "id": "51b5e6aa4682591c445ebb59", "uri": "/clubs/51b5e6aa4682591c445ebb59"}, {"activated_at": "2012-10-29T15:24:04Z", "contact": {"skype": null}, "venue": {"website": null, "city": "Doncaster", "name": "Stirling Primary School", "country": {"code": "GB", "name": "United Kingdom"}, "location": {"lat": 53.5160019, "lng": -1.133922}, "postcode": "DN1 3QP", "address_2": "", "address_1": "Prospect Place"}, "id": "51b5e6aa4682591c445ebb5c", "uri": "/clubs/51b5e6aa4682591c445ebb5c"}, {"activated_at": "2012-10-29T16:10:20Z", "contact": {"skype": null}, "venue": {"website": null, "city": "Bolton", "name": "Markland Hilll Primary School", "country": {"code": "GB", "name": "United Kingdom"}, "location": {"lat": 53.585394, "lng": -2.4784147}, "postcode": "BL1 5EJ", "address_2": "", "address_1": "Markland Hill"}, "id": "51b5e6aa4682591c445ebb5f", "uri": "/clubs/51b5e6aa4682591c445ebb5f"}, {"activated_at": "2012-10-31T09:18:19Z", "contact": {"skype": null}, "venue": {"website": null, "city": "Maidenhead", "name": "Furze Platt Junior School", "country": {"code": "GB", "name": "United Kingdom"}, "location": {"lat": 51.5311509, "lng": -0.741226}, "postcode": "SL6 6HQ", "address_2": "", "address_1": "Oaken Grove"}, "id": "51b5e6aa4682591c445ebb62", "uri": "/clubs/51b5e6aa4682591c445ebb62"}, {"activated_at": "2012-11-01T15:38:18Z", "contact": {"skype": null}, "venue": {"website": null, "city": "Exeter", "name": "Exwick Heights Primary School", "country": {"code": "GB", "name": "United Kingdom"}, "location": {"lat": 50.7292966, "lng": -3.5577539}, "postcode": "EX4 2FB", "address_2": "", "address_1": "Exwick Lane"}, "id": "51b5e6aa4682591c445ebb65", "uri": "/clubs/51b5e6aa4682591c445ebb65"}, {"activated_at": "2012-11-04T21:38:19Z", "contact": {"skype": null}, "venue": {"website": null, "city": "London", "name": "St Saviour's C of E Primary School", "country": {"code": "GB", "name": "United Kingdom"}, "location": {"lat": 51.5241572, "lng": -0.188245}, "postcode": "W9 2JD", "address_2": "", "address_1": "Shirland Road"}, "id": "51b5e6aa4682591c445ebb68", "uri": "/clubs/51b5e6aa4682591c445ebb68"}, {"activated_at": "2012-11-06T09:53:39Z", "contact": {"skype": null}, "venue": {"website": null, "city": "Tetbury", "name": "Rosehill Westonbirt", "country": {"code": "GB", "name": "United Kingdom"}, "location": {"lat": 51.6052761, "lng": -2.19822}, "postcode": "GL8 8QG", "address_2": "", "address_1": "Westonbirt"}, "id": "51b5e6ab4682591c445ebb6b", "uri": "/clubs/51b5e6ab4682591c445ebb6b"}, {"activated_at": "2012-11-07T11:08:07Z", "contact": {"skype": null}, "venue": {"website": null, "city": "Chesterfield", "name": "Tupton Hall School", "country": {"code": "GB", "name": "United Kingdom"}, "location": {"lat": 53.1822641, "lng": -1.409513}, "postcode": "S42 6LG", "address_2": "Tupton", "address_1": "Station New Road"}, "id": "51b5e6ab4682591c445ebb6e", "uri": "/clubs/51b5e6ab4682591c445ebb6e"}, {"activated_at": "2012-11-11T13:43:04Z", "contact": {"skype": null}, "venue": {"website": null, "city": "London", "name": "Primrose Hill School", "country": {"code": "GB", "name": "United Kingdom"}, "location": {"lat": 51.5391726, "lng": -0.1518002}, "postcode": "NW1 8JL", "address_2": "", "address_1": "Princess Road"}, "id": "51b5e6ab4682591c445ebb71", "uri": "/clubs/51b5e6ab4682591c445ebb71"}, {"activated_at": "2012-11-11T21:32:07Z", "contact": {"skype": null}, "venue": {"website": null, "city": "York", "name": "Acomb Primary School", "country": {"code": "GB", "name": "United Kingdom"}, "location": {"lat": 53.955015, "lng": -1.1147183}, "postcode": "YO24 4ES", "address_2": "", "address_1": "West Bank"}, "id": "51b5e6ab4682591c445ebb74", "uri": "/clubs/51b5e6ab4682591c445ebb74"}, {"activated_at": "2012-11-12T12:49:46Z", "contact": {"skype": null}, "venue": {"website": null, "city": "Galgate", "name": "Ellel St John's", "country": {"code": "GB", "name": "United Kingdom"}, "location": {"lat": 53.9925485, "lng": -2.7879901}, "postcode": "LA2 0JS", "address_2": "", "address_1": "Chapel Lane"}, "id": "51b5e6ab4682591c445ebb77", "uri": "/clubs/51b5e6ab4682591c445ebb77"}, {"activated_at": "2012-11-14T12:59:40Z", "contact": {"skype": null}, "venue": {"website": null, "city": "London", "name": "Millbank Academy", "country": {"code": "GB", "name": "United Kingdom"}, "location": {"lat": 51.491417, "lng": -0.1304679}, "postcode": "SW1P 4HR", "address_2": "", "address_1": "Erasmus Street"}, "id": "51b5e6ab4682591c445ebb7a", "uri": "/clubs/51b5e6ab4682591c445ebb7a"}, {"activated_at": "2012-11-18T13:00:33Z", "contact": {"skype": null}, "venue": {"website": null, "city": "Bristol", "name": "Headley park School", "country": {"code": "GB", "name": "United Kingdom"}, "location": {"lat": 51.417587, "lng": -2.6102938}, "postcode": "BS13 7QB", "address_2": "Bristol", "address_1": "Headley Lane"}, "id": "51b5e6ac4682591c445ebb7d", "uri": "/clubs/51b5e6ac4682591c445ebb7d"}, {"activated_at": "2012-11-19T18:19:36Z", "contact": {"skype": null}, "venue": {"website": null, "city": "Shoreham-by-Sea", "name": "Swiss Gardens Primary School", "country": {"code": "GB", "name": "United Kingdom"}, "location": {"lat": 50.8355797, "lng": -0.2792191}, "postcode": "BN43 5WH", "address_2": "", "address_1": "Swiss Gardens"}, "id": "51b5e6ac4682591c445ebb80", "uri": "/clubs/51b5e6ac4682591c445ebb80"}, {"activated_at": "2012-11-19T18:20:02Z", "contact": {"skype": null}, "venue": {"website": null, "city": "Waltham Chase", "name": "St John the Baptist Primary School", "country": {"code": "GB", "name": "United Kingdom"}, "location": {"lat": 50.9280112, "lng": -1.1984372}, "postcode": "SO32 2LY", "address_2": "", "address_1": "Solomon's Lane"}, "id": "51b5e6ac4682591c445ebb83", "uri": "/clubs/51b5e6ac4682591c445ebb83"}, {"activated_at": "2012-11-20T09:28:08Z", "contact": {"skype": null}, "venue": {"website": null, "city": "Islip", "name": "Dr South\u2019s CE (Aided) Primary School", "country": {"code": "GB", "name": "United Kingdom"}, "location": {"lat": 51.8249451, "lng": -1.2386015}, "postcode": "OX5 2TQ", "address_2": "", "address_1": "Bletchingdon Road"}, "id": "51b5e6ac4682591c445ebb86", "uri": "/clubs/51b5e6ac4682591c445ebb86"}, {"activated_at": "2012-11-22T14:23:09Z", "contact": {"skype": null}, "venue": {"website": null, "city": "By Biggar", "name": "Broughton Central Primary School", "country": {"code": "GB", "name": "United Kingdom"}, "location": {"lat": 55.6104419, "lng": -3.4094888}, "postcode": "ML12 6HQ", "address_2": "", "address_1": "Broughton"}, "id": "51b5e6ac4682591c445ebb89", "uri": "/clubs/51b5e6ac4682591c445ebb89"}, {"activated_at": "2012-11-23T16:22:27Z", "contact": {"skype": null}, "venue": {"website": null, "city": "Gilmorton", "name": "Gilmorton Chandler CE VA Primary School", "country": {"code": "GB", "name": "United Kingdom"}, "location": {"lat": 52.4867051, "lng": -1.1619021}, "postcode": "LE17 5LU", "address_2": "", "address_1": "Church Lane"}, "id": "51b5e6ac4682591c445ebb8c", "uri": "/clubs/51b5e6ac4682591c445ebb8c"}, {"activated_at": "2012-11-27T21:14:32Z", "contact": {"skype": null}, "venue": {"website": null, "city": "Cambridge", "name": "Coton C of E Primary School", "country": {"code": "GB", "name": "United Kingdom"}, "location": {"lat": 52.2086301, "lng": 0.0551072}, "postcode": "CB23 7PW", "address_2": "Coton", "address_1": "Whitwell Way"}, "id": "51b5e6ad4682591c445ebb8f", "uri": "/clubs/51b5e6ad4682591c445ebb8f"}, {"activated_at": "2012-11-30T11:05:44Z", "contact": {"skype": null}, "venue": {"website": null, "city": "Ely", "name": "Rackham Church of England Primary School", "country": {"code": "GB", "name": "United Kingdom"}, "location": {"lat": 52.3869023, "lng": 0.2055737}, "postcode": "CB6 2HQ", "address_2": "Witchford", "address_1": "Main Street"}, "id": "51b5e6ad4682591c445ebb92", "uri": "/clubs/51b5e6ad4682591c445ebb92"}, {"activated_at": "2012-12-07T14:54:14Z", "contact": {"skype": null}, "venue": {"website": null, "city": "TUNBRIDGE WELLS", "name": "St Marks CE Primary School", "country": {"code": "GB", "name": "United Kingdom"}, "location": {"lat": 51.1171761, "lng": 0.2645443}, "postcode": "TN2 5ND", "address_2": "", "address_1": "5 Old Gardens Close"}, "id": "51b5e6ad4682591c445ebb95", "uri": "/clubs/51b5e6ad4682591c445ebb95"}, {"activated_at": "2012-12-10T10:32:27Z", "contact": {"skype": null}, "venue": {"website": null, "city": "Southampton", "name": "Swanmore C of E Primary School", "country": {"code": "GB", "name": "United Kingdom"}, "location": {"lat": 50.9450834, "lng": -1.1822014}, "postcode": "SO32 2PA", "address_2": "Swanmore", "address_1": "Church Road"}, "id": "51b5e6ad4682591c445ebb98", "uri": "/clubs/51b5e6ad4682591c445ebb98"}, {"activated_at": "2012-12-11T20:52:48Z", "contact": {"skype": null}, "venue": {"website": null, "city": "Byfleet", "name": "St Mary's C.E. Primary School", "country": {"code": "GB", "name": "United Kingdom"}, "location": {"lat": 51.3348891, "lng": -0.4768148}, "postcode": "KT14 7NJ", "address_2": "", "address_1": "Hart Road"}, "id": "51b5e6ad4682591c445ebb9b", "uri": "/clubs/51b5e6ad4682591c445ebb9b"}, {"activated_at": "2012-12-12T19:02:00Z", "contact": {"skype": null}, "venue": {"website": null, "city": "Findon", "name": "St John the Baptist C of E Primary School", "country": {"code": "GB", "name": "United Kingdom"}, "location": {"lat": 50.868981, "lng": -0.4085266}, "postcode": "BN14 0TR", "address_2": "", "address_1": "School Hill"}, "id": "51b5e6ae4682591c445ebb9e", "uri": "/clubs/51b5e6ae4682591c445ebb9e"}, {"activated_at": "2012-12-13T15:18:49Z", "contact": {"skype": null}, "venue": {"website": null, "city": "Ilkley", "name": "Burley Woodhead C E Primary School", "country": {"code": "GB", "name": "United Kingdom"}, "location": {"lat": 53.906867, "lng": -1.7463472}, "postcode": "LS29 7RQ", "address_2": "Burley In Wharfedale", "address_1": "Sandholme Drive"}, "id": "51b5e6ae4682591c445ebba1", "uri": "/clubs/51b5e6ae4682591c445ebba1"}, {"activated_at": "2012-12-13T16:20:19Z", "contact": {"skype": null}, "venue": {"website": null, "city": "Croydon", "name": "Old Palace of John Whitgift School", "country": {"code": "GB", "name": "United Kingdom"}, "location": {"lat": 51.3727829, "lng": -0.1045142}, "postcode": "CR0 1AX", "address_2": "", "address_1": "Old Palace Road"}, "id": "51b5e6ae4682591c445ebba4", "uri": "/clubs/51b5e6ae4682591c445ebba4"}, {"activated_at": "2012-12-14T17:18:14Z", "contact": {"skype": null}, "venue": {"website": null, "city": "Cambridge", "name": "Waterbeach Community Primary School", "country": {"code": "GB", "name": "United Kingdom"}, "location": {"lat": 52.2694983, "lng": 0.190448}, "postcode": "CB25 9JU", "address_2": "Waterbeach", "address_1": "High Street"}, "id": "51b5e6ae4682591c445ebba7", "uri": "/clubs/51b5e6ae4682591c445ebba7"}, {"activated_at": "2012-12-16T13:14:18Z", "contact": {"skype": null}, "venue": {"website": null, "city": "Warrington", "name": "St Peter's Catholic Primary School", "country": {"code": "GB", "name": "United Kingdom"}, "location": {"lat": 53.4017232, "lng": -2.5354751}, "postcode": "WA1 4PQ", "address_2": "", "address_1": "Hillock Lane"}, "id": "51b5e6ae4682591c445ebbaa", "uri": "/clubs/51b5e6ae4682591c445ebbaa"}, {"activated_at": "2012-12-17T11:24:08Z", "contact": {"skype": null}, "venue": {"website": null, "city": "Caernarfon", "name": "Ysgol Gynradd RHostryfan", "country": {"code": "GB", "name": "United Kingdom"}, "location": {"lat": 53.0975273, "lng": -4.2471132}, "postcode": "LL54 7LR", "address_2": "", "address_1": "Rhostryfan"}, "id": "51b5e6af4682591c445ebbad", "uri": "/clubs/51b5e6af4682591c445ebbad"}, {"activated_at": "2013-01-07T15:54:23Z", "contact": {"skype": null}, "venue": {"website": null, "city": "Gosforth", "name": "Westfield Independent day school for Girls", "country": {"code": "GB", "name": "United Kingdom"}, "location": {"lat": 54.9981498, "lng": -1.6276107}, "postcode": "NE3 4HS", "address_2": "", "address_1": "Oakfield Road"}, "id": "51b5e6af4682591c445ebbb0", "uri": "/clubs/51b5e6af4682591c445ebbb0"}, {"activated_at": "2013-01-08T14:02:13Z", "contact": {"skype": null}, "venue": {"website": null, "city": "Doncaster", "name": "Bentley New Village Primary School", "country": {"code": "GB", "name": "United Kingdom"}, "location": {"lat": 53.5520895, "lng": -1.1411552}, "postcode": "DN5 0NU", "address_2": "Bentley", "address_1": "Asquith Road"}, "id": "51b5e6af4682591c445ebbb3", "uri": "/clubs/51b5e6af4682591c445ebbb3"}, {"activated_at": "2013-01-09T22:03:08Z", "contact": {"skype": null}, "venue": {"website": null, "city": "Alfriston", "name": "Alfriston", "country": {"code": "GB", "name": "United Kingdom"}, "location": {"lat": 50.7727735, "lng": 0.1258228}, "postcode": "BN25 6XB", "address_2": "", "address_1": "North road"}, "id": "51b5e6af4682591c445ebbb6", "uri": "/clubs/51b5e6af4682591c445ebbb6"}, {"activated_at": "2013-01-13T10:57:16Z", "contact": {"skype": null}, "venue": {"website": null, "city": "Ormskirk", "name": "Mawdesley St. Peter\u2019s Church of England Primary School", "country": {"code": "GB", "name": "United Kingdom"}, "location": {"lat": 53.6290611, "lng": -2.769405}, "postcode": "L40 2QT", "address_2": "Mawdesley", "address_1": "Hurst Green"}, "id": "51b5e6af4682591c445ebbb9", "uri": "/clubs/51b5e6af4682591c445ebbb9"}, {"activated_at": "2013-01-18T12:01:41Z", "contact": {"skype": null}, "venue": {"website": null, "city": "London", "name": "Thomas'", "country": {"code": "GB", "name": "United Kingdom"}, "location": {"lat": 51.4984079, "lng": -0.1874078}, "postcode": "W8 5PR", "address_2": "", "address_1": "Cottesmore Gardens"}, "id": "51b5e6af4682591c445ebbbc", "uri": "/clubs/51b5e6af4682591c445ebbbc"}, {"activated_at": "2013-04-02T16:52:46Z", "contact": {"skype": null}, "venue": {"website": "http://www.nettleham-junior.lincs.sch.uk/", "city": "Lincoln", "name": "The Nettleham Church of England Voluntary Aided Junior School", "country": {"code": "GB", "name": "United Kingdom"}, "location": {"lat": 53.26482310000001, "lng": -0.4866485}, "postcode": "LN2 2PE", "address_2": null, "address_1": "Mill Hill"}, "id": "51b5e6b04682591c445ebbbf", "uri": "/clubs/51b5e6b04682591c445ebbbf"}, {"activated_at": "2013-03-28T19:27:35Z", "contact": {"skype": null}, "venue": {"website": null, "city": "Reading", "name": "Long Lane Primary School", "country": {"code": "GB", "name": "United Kingdom"}, "location": {"lat": 51.4777014, "lng": -1.0527958}, "postcode": "RG31 6YG", "address_2": "Tilehurst", "address_1": "Long Lane"}, "id": "51b5e6b04682591c445ebbc2", "uri": "/clubs/51b5e6b04682591c445ebbc2"}, {"activated_at": "2012-10-11T15:23:54Z", "contact": {"skype": null}, "venue": {"website": null, "city": "Ruddington", "name": "St Peter's C of E Junior School, Ruddington", "country": {"code": "GB", "name": "United Kingdom"}, "location": {"lat": 52.897987, "lng": -1.1434961}, "postcode": "NG11 6GB", "address_2": "", "address_1": "Ashworth Avenue"}, "id": "51b5e6b04682591c445ebbc5", "uri": "/clubs/51b5e6b04682591c445ebbc5"}, {"activated_at": "2013-03-31T23:31:13Z", "contact": {"skype": null}, "venue": {"website": null, "city": "Swansea", "name": "Pontlliw Primary School", "country": {"code": "GB", "name": "United Kingdom"}, "location": {"lat": 51.6932164, "lng": -4.010497}, "postcode": "SA4 9FA", "address_2": "Pontlliw", "address_1": "Clordir Road"}, "id": "51b5e6b04682591c445ebbc8", "uri": "/clubs/51b5e6b04682591c445ebbc8"}, {"activated_at": "2013-04-15T13:47:04Z", "contact": {"skype": null}, "venue": {"website": null, "city": null, "name": "The Greenwich Free School", "country": {"code": "GB", "name": "United Kingdom"}, "location": {"lat": 51.4719588, "lng": 0.0527583}, "postcode": "SE18 4LH", "address_2": null, "address_1": null}, "id": "51b5e6b04682591c445ebbcb", "uri": "/clubs/51b5e6b04682591c445ebbcb"}, {"activated_at": "2013-03-19T13:40:56Z", "contact": {"skype": null}, "venue": {"website": null, "city": "Kings Somborne", "name": "King's Somborne Primary School", "country": {"code": "GB", "name": "United Kingdom"}, "location": {"lat": 51.0792195, "lng": -1.4823903}, "postcode": "SO20 6PE", "address_2": "", "address_1": "Romsey Road"}, "id": "51b5e6b14682591c445ebbce", "uri": "/clubs/51b5e6b14682591c445ebbce"}, {"activated_at": "2012-10-11T15:24:55Z", "contact": {"skype": null}, "venue": {"website": "http://www.st-johns.stockport.sch.uk", "city": "Stockport", "name": "St John's Church of England Primary School", "country": {"code": "GB", "name": "United Kingdom"}, "location": {"lat": 53.4142271, "lng": -2.2045162}, "postcode": "SK4 3DG", "address_2": null, "address_1": "Poplar Street"}, "id": "51b5e6b14682591c445ebbd1", "uri": "/clubs/51b5e6b14682591c445ebbd1"}, {"activated_at": "2013-04-12T09:38:41Z", "contact": {"skype": null}, "venue": {"website": "http://www.russellhallprimary.co.uk/", "city": "Bradford", "name": "Russell Hall Primary School", "country": {"code": "GB", "name": "United Kingdom"}, "location": {"lat": 53.7662258, "lng": -1.851266}, "postcode": "BD13 2AW", "address_2": "Queensbury", "address_1": "West End"}, "id": "51b5e6b14682591c445ebbd4", "uri": "/clubs/51b5e6b14682591c445ebbd4"}, {"activated_at": "2013-04-08T15:26:21Z", "contact": {"skype": null}, "venue": {"website": "http://www.bettylayward.hackney.sch.uk/", "city": null, "name": "Betty Layward School", "country": {"code": "GB", "name": "United Kingdom"}, "location": {"lat": 51.5578873, "lng": -0.084609}, "postcode": "N16 9EX", "address_2": null, "address_1": null}, "id": "51b5e6b14682591c445ebbd7", "uri": "/clubs/51b5e6b14682591c445ebbd7"}, {"activated_at": "2013-05-13T10:19:56Z", "contact": {"skype": null}, "venue": {"website": null, "city": null, "name": "St John of Jerusalem Primary School", "country": {"code": "GB", "name": "United Kingdom"}, "location": {"lat": 51.5400811, "lng": -0.0501559}, "postcode": "E9 7JF", "address_2": null, "address_1": null}, "id": "51b5e6b14682591c445ebbda", "uri": "/clubs/51b5e6b14682591c445ebbda"}, {"activated_at": "2012-12-10T14:15:39Z", "contact": {"skype": null}, "venue": {"website": null, "city": "London", "name": "Belleville Primary School", "country": {"code": "GB", "name": "United Kingdom"}, "location": {"lat": 51.4568867, "lng": -0.1646837}, "postcode": "SW11 6PR", "address_2": "", "address_1": "Belleville Road"}, "id": "51b5e6b14682591c445ebbdd", "uri": "/clubs/51b5e6b14682591c445ebbdd"}, {"activated_at": "2013-02-07T10:41:24Z", "contact": {"skype": null}, "venue": {"website": null, "city": "Ipswich", "name": "Sidegate Primary School", "country": {"code": "GB", "name": "United Kingdom"}, "location": {"lat": 52.0659443, "lng": 1.1805571}, "postcode": "IP4 4JD", "address_2": "", "address_1": "Sidegate Lane"}, "id": "51b5e6b24682591c445ebbe0", "uri": "/clubs/51b5e6b24682591c445ebbe0"}, {"activated_at": "2013-02-24T11:22:09Z", "contact": {"skype": null}, "venue": {"website": null, "city": "Sevenoaks", "name": "The Granville School", "country": {"code": "GB", "name": "United Kingdom"}, "location": {"lat": 51.2801799, "lng": 0.1817974}, "postcode": "TN13 3LJ", "address_2": "", "address_1": "2 Bradbourne Park Road"}, "id": "51b5e6b24682591c445ebbe3", "uri": "/clubs/51b5e6b24682591c445ebbe3"}, {"activated_at": "2013-04-15T14:19:57Z", "contact": {"skype": null}, "venue": {"website": null, "city": null, "name": "St John's Highbury Vale", "country": {"code": "GB", "name": "United Kingdom"}, "location": {"lat": 51.5582755, "lng": -0.1001876}, "postcode": "N5 1DL", "address_2": null, "address_1": null}, "id": "51b5e6b24682591c445ebbe6", "uri": "/clubs/51b5e6b24682591c445ebbe6"}, {"activated_at": "2013-04-16T11:17:35Z", "contact": {"skype": null}, "venue": {"website": "http://www.adlingtonstpauls.lancs.sch.uk", "city": "Chorley", "name": "Adlington St Paul's Church of England Primary School", "country": {"code": "GB", "name": "United Kingdom"}, "location": {"lat": 53.6156045, "lng": -2.5999456}, "postcode": "PR6 9QZ", "address_2": null, "address_1": "Railway Road"}, "id": "51b5e6b24682591c445ebbe9", "uri": "/clubs/51b5e6b24682591c445ebbe9"}, {"activated_at": "2012-10-11T15:24:15Z", "contact": {"skype": null}, "venue": {"website": null, "city": "Norwich", "name": "Hoveton St Johns Community Primary School", "country": {"code": "GB", "name": "United Kingdom"}, "location": {"lat": 52.7122827, "lng": 1.415323}, "postcode": "NR12 8NX", "address_2": "Hoveton", "address_1": "Horning Road"}, "id": "51b5e6b24682591c445ebbec", "uri": "/clubs/51b5e6b24682591c445ebbec"}, {"activated_at": "2013-03-01T16:40:31Z", "contact": {"skype": null}, "venue": {"website": null, "city": "Warrington", "name": "Lowton West Primary School", "country": {"code": "GB", "name": "United Kingdom"}, "location": {"lat": 53.4762194, "lng": -2.5800467}, "postcode": "WA3 2ED", "address_2": "Lowton", "address_1": "Slag Lane"}, "id": "51b5e6b24682591c445ebbef", "uri": "/clubs/51b5e6b24682591c445ebbef"}, {"activated_at": "2012-10-11T15:24:13Z", "contact": {"skype": null}, "venue": {"website": null, "city": "Northampton", "name": "Caroline Chisholm School (Primary)", "country": {"code": "GB", "name": "United Kingdom"}, "location": {"lat": 51.5728114, "lng": -0.1000159}, "postcode": "N4 6TP", "address_2": "Wootton Fields", "address_1": "The Wooldale Centre for Learning"}, "id": "51b5e6b34682591c445ebbf2", "uri": "/clubs/51b5e6b34682591c445ebbf2"}, {"activated_at": "2013-04-21T22:21:51Z", "contact": {"skype": null}, "venue": {"website": "http://www.trewirgie-jnr.cornwall.sch.uk", "city": null, "name": "Trewirgie junior school ", "country": {"code": "GB", "name": "United Kingdom"}, "location": {"lat": 50.2301219, "lng": -5.2278214}, "postcode": "TR15 2QN", "address_2": null, "address_1": null}, "id": "51b5e6b34682591c445ebbf5", "uri": "/clubs/51b5e6b34682591c445ebbf5"}, {"activated_at": "2013-03-08T16:36:29Z", "contact": {"skype": null}, "venue": {"website": null, "city": "Chertsey", "name": "Stepgates Community School", "country": {"code": "GB", "name": "United Kingdom"}, "location": {"lat": 51.388243, "lng": -0.4978813}, "postcode": "KT16 8HT", "address_2": "", "address_1": "Stepgates"}, "id": "51b5e6b34682591c445ebbf9", "uri": "/clubs/51b5e6b34682591c445ebbf9"}, {"activated_at": "2012-10-11T15:23:50Z", "contact": {"skype": null}, "venue": {"website": null, "city": "Haverfordwest", "name": "Pembrokeshire College", "country": {"code": "GB", "name": "United Kingdom"}, "location": {"lat": 51.7923012, "lng": -4.9813541}, "postcode": "SA61 1SZ", "address_2": "", "address_1": "Merlins Bridge"}, "id": "51b5e6b34682591c445ebbfc", "uri": "/clubs/51b5e6b34682591c445ebbfc"}, {"activated_at": "2013-04-15T15:26:19Z", "contact": {"skype": null}, "venue": {"website": null, "city": null, "name": "Guildford Grove Primary School", "country": {"code": "GB", "name": "United Kingdom"}, "location": {"lat": 51.243979, "lng": -0.6093359}, "postcode": "GU2 8YD", "address_2": null, "address_1": null}, "id": "51b5e6b44682591c445ebbff", "uri": "/clubs/51b5e6b44682591c445ebbff"}, {"activated_at": "2012-10-11T15:24:50Z", "contact": {"skype": null}, "venue": {"website": null, "city": "Hatfield Peverel", "name": "Hatfield Peverel St. Andrew's Junior School", "country": {"code": "GB", "name": "United Kingdom"}, "location": {"lat": 51.7719898, "lng": 0.6036897}, "postcode": "CM3 2JX", "address_2": "", "address_1": "Church Road"}, "id": "51b5e6b44682591c445ebc02", "uri": "/clubs/51b5e6b44682591c445ebc02"}, {"activated_at": "2013-02-27T21:01:32Z", "contact": {"skype": null}, "venue": {"website": null, "city": "Egham", "name": "Bishopsgate School", "country": {"code": "GB", "name": "United Kingdom"}, "location": {"lat": 51.4394211, "lng": -0.5833663}, "postcode": "TW20 0YJ", "address_2": "", "address_1": "Bishopsgate Road"}, "id": "51b5e6b44682591c445ebc05", "uri": "/clubs/51b5e6b44682591c445ebc05"}, {"activated_at": "2012-12-13T16:58:44Z", "contact": {"skype": null}, "venue": {"website": null, "city": "Nottingham", "name": "Top Valley Academy", "country": {"code": "GB", "name": "United Kingdom"}, "location": {"lat": 53.008672, "lng": -1.1748854}, "postcode": "NG5 9AZ", "address_2": "Top Valley", "address_1": "Top valley Drive"}, "id": "51b5e6b44682591c445ebc08", "uri": "/clubs/51b5e6b44682591c445ebc08"}, {"activated_at": "2013-03-17T17:29:22Z", "contact": {"skype": null}, "venue": {"website": null, "city": "South Croydon", "name": "Ridgeway Primary School", "country": {"code": "GB", "name": "United Kingdom"}, "location": {"lat": 51.3450627, "lng": -0.0837891}, "postcode": "CR2 0EQ", "address_2": "Sanderstead", "address_1": "Southcote Road"}, "id": "51b5e6b44682591c445ebc0b", "uri": "/clubs/51b5e6b44682591c445ebc0b"}, {"activated_at": "2012-10-11T15:24:16Z", "contact": {"skype": null}, "venue": {"website": null, "city": "Newbury", "name": "St Martin's East Woodhay (CE Aided) Primary School", "country": {"code": "GB", "name": "United Kingdom"}, "location": {"lat": 51.3487411, "lng": -1.4074664}, "postcode": "RG20 0AF", "address_2": "", "address_1": "East End"}, "id": "51b5e6b44682591c445ebc0e", "uri": "/clubs/51b5e6b44682591c445ebc0e"}, {"activated_at": "2013-01-21T11:59:48Z", "contact": {"skype": null}, "venue": {"website": null, "city": "great chesterford ", "name": "Great Chesterford C of E Primary academy ", "country": {"code": "GB", "name": "United Kingdom"}, "location": {"lat": 52.0635973, "lng": 0.1967705}, "postcode": "CB10 1NN", "address_2": "", "address_1": "school street "}, "id": "51b5e6b54682591c445ebc11", "uri": "/clubs/51b5e6b54682591c445ebc11"}, {"activated_at": "2012-10-11T15:24:39Z", "contact": {"skype": null}, "venue": {"website": null, "city": "South Norwood", "name": "Heavers Farm Primary School", "country": {"code": "GB", "name": "United Kingdom"}, "location": {"lat": 51.3945137, "lng": -0.0826721}, "postcode": "SE25 6LT", "address_2": "", "address_1": "58 Dinsdale Gardens"}, "id": "51b5e6b54682591c445ebc14", "uri": "/clubs/51b5e6b54682591c445ebc14"}, {"activated_at": "2012-12-11T13:05:35Z", "contact": {"skype": null}, "venue": {"website": null, "city": "London", "name": "Frith Manor Primary School", "country": {"code": "GB", "name": "United Kingdom"}, "location": {"lat": 51.6148587, "lng": -0.2019829}, "postcode": "N12 7BN", "address_2": "", "address_1": "Lullington Garth"}, "id": "51b5e6b54682591c445ebc17", "uri": "/clubs/51b5e6b54682591c445ebc17"}, {"activated_at": "2013-02-07T20:46:05Z", "contact": {"skype": null}, "venue": {"website": null, "city": "Carnforth", "name": "Milnthorpe Primary School", "country": {"code": "GB", "name": "United Kingdom"}, "location": {"lat": 54.2249582, "lng": -2.7706303}, "postcode": "LA7 7QF", "address_2": "Milnthorpe", "address_1": "Firs road"}, "id": "51b5e6b54682591c445ebc1a", "uri": "/clubs/51b5e6b54682591c445ebc1a"}, {"activated_at": "2013-02-15T14:05:04Z", "contact": {"skype": null}, "venue": {"website": null, "city": "Wareham", "name": "Sandford St Martin\u2019s C.E. (V.A.) Primary School", "country": {"code": "GB", "name": "United Kingdom"}, "location": {"lat": 50.7091798, "lng": -2.0975551}, "postcode": "BH20 7AJ", "address_2": "", "address_1": "Sandford,"}, "id": "51b5e6b54682591c445ebc1d", "uri": "/clubs/51b5e6b54682591c445ebc1d"}, {"activated_at": "2013-04-22T19:52:18Z", "contact": {"skype": null}, "venue": {"website": null, "city": "Nottingham", "name": "Nottingham Academy Primary School", "country": {"code": "GB", "name": "United Kingdom"}, "location": {"lat": 52.9566685, "lng": -1.1149472}, "postcode": "NG3 7EB", "address_2": "Greenwood Road", "address_1": "Greenwood Road Site, Nottingham Academy"}, "id": "51b5e6b54682591c445ebc20", "uri": "/clubs/51b5e6b54682591c445ebc20"}, {"activated_at": "2013-03-20T20:03:27Z", "contact": {"skype": null}, "venue": {"website": null, "city": "Radstock", "name": "Welton Primary School", "country": {"code": "GB", "name": "United Kingdom"}, "location": {"lat": 51.2900221, "lng": -2.474015}, "postcode": "BA3 2AG", "address_2": "Midsomer Norton", "address_1": "Radstock Road"}, "id": "51b5e6b64682591c445ebc23", "uri": "/clubs/51b5e6b64682591c445ebc23"}, {"activated_at": "2012-12-09T20:12:53Z", "contact": {"skype": null}, "venue": {"website": null, "city": "Bromley", "name": "Bickley Primary School", "country": {"code": "GB", "name": "United Kingdom"}, "location": {"lat": 51.4023888, "lng": 0.0311664}, "postcode": "BR1 2SQ", "address_2": "", "address_1": "Nightingale Lane"}, "id": "51b5e6b64682591c445ebc26", "uri": "/clubs/51b5e6b64682591c445ebc26"}, {"activated_at": "2013-02-22T16:06:05Z", "contact": {"skype": null}, "venue": {"website": null, "city": "Swindon", "name": "Lawn Primary School", "country": {"code": "GB", "name": "United Kingdom"}, "location": {"lat": 51.5465951, "lng": -1.760868}, "postcode": "SN3 1LE", "address_2": "", "address_1": "Cleeve Lawns"}, "id": "51b5e6b64682591c445ebc29", "uri": "/clubs/51b5e6b64682591c445ebc29"}, {"activated_at": "2012-10-11T15:24:22Z", "contact": {"skype": null}, "venue": {"website": null, "city": "London", "name": "Snowsfields Primary School", "country": {"code": "GB", "name": "United Kingdom"}, "location": {"lat": 51.5015101, "lng": -0.083876}, "postcode": "SE1 3TD", "address_2": "Southwark", "address_1": "Kirby Grove"}, "id": "51b5e6b64682591c445ebc2c", "uri": "/clubs/51b5e6b64682591c445ebc2c"}, {"activated_at": "2013-03-09T20:44:48Z", "contact": {"skype": null}, "venue": {"website": null, "city": "SHEFFIELD", "name": "Malin Bridge Primary School", "country": {"code": "GB", "name": "United Kingdom"}, "location": {"lat": 53.4015954, "lng": -1.5117656}, "postcode": "S6 4RH", "address_2": "", "address_1": "Dykes Lane"}, "id": "51b5e6b64682591c445ebc2f", "uri": "/clubs/51b5e6b64682591c445ebc2f"}, {"activated_at": "2013-03-20T20:49:50Z", "contact": {"skype": null}, "venue": {"website": null, "city": "Brentwood", "name": "Bentley St. Paul's C of E Primary School", "country": {"code": "GB", "name": "United Kingdom"}, "location": {"lat": 51.6480082, "lng": 0.273384}, "postcode": "CM15 9SE", "address_2": "", "address_1": "Ashwells Road"}, "id": "51b5e6b64682591c445ebc32", "uri": "/clubs/51b5e6b64682591c445ebc32"}, {"activated_at": "2012-11-08T22:35:09Z", "contact": {"skype": null}, "venue": {"website": null, "city": "Croydon", "name": "Forestdale Primary School", "country": {"code": "GB", "name": "United Kingdom"}, "location": {"lat": 51.348518, "lng": -0.0409658}, "postcode": "CR0 9JE", "address_2": "", "address_1": "Pixton Way"}, "id": "51b5e6b74682591c445ebc35", "uri": "/clubs/51b5e6b74682591c445ebc35"}, {"activated_at": "2013-04-18T10:08:10Z", "contact": {"skype": null}, "venue": {"website": "http://www.stmargaretc.bracknell-forest.sch.uk", "city": "Bracknell", "name": "St Margaret Clitherow Catholic Primary School, Bracknell", "country": {"code": "GB", "name": "United Kingdom"}, "location": {"lat": 51.3902519, "lng": -0.7650378}, "postcode": "RG12 7RD", "address_2": null, "address_1": "Pembroke"}, "id": "51b5e6b74682591c445ebc38", "uri": "/clubs/51b5e6b74682591c445ebc38"}, {"activated_at": "2013-03-20T22:18:34Z", "contact": {"skype": null}, "venue": {"website": "http://www.nursteed.wilts.sch.uk", "city": "Devizes", "name": "Nursteed Community Primary School", "country": {"code": "GB", "name": "United Kingdom"}, "location": {"lat": 51.3505318, "lng": -1.9729553}, "postcode": "SN10 3BF", "address_2": "", "address_1": "Brickley Lane"}, "id": "51b5e6b74682591c445ebc3b", "uri": "/clubs/51b5e6b74682591c445ebc3b"}, {"activated_at": "2013-03-06T11:59:54Z", "contact": {"skype": null}, "venue": {"website": null, "city": "Tarbolton", "name": "Tarbolton Primary", "country": {"code": "GB", "name": "United Kingdom"}, "location": {"lat": 55.5115374, "lng": -4.4853672}, "postcode": "KA5 5PY", "address_2": "", "address_1": "Montgomerie Street"}, "id": "51b5e6b74682591c445ebc3e", "uri": "/clubs/51b5e6b74682591c445ebc3e"}, {"activated_at": "2013-01-31T22:24:41Z", "contact": {"skype": null}, "venue": {"website": "http://milfordjuniors.com", "city": "Yeovil", "name": "Milford Junior School", "country": {"code": "GB", "name": "United Kingdom"}, "location": {"lat": 50.9539509, "lng": -2.6332845}, "postcode": "BA21 4PG", "address_2": "", "address_1": "Glenthorne Avenue"}, "id": "51b5e6b74682591c445ebc41", "uri": "/clubs/51b5e6b74682591c445ebc41"}, {"activated_at": "2013-04-23T15:59:50Z", "contact": {"skype": null}, "venue": {"website": "http://www.fox.rbkc.sch.uk", "city": null, "name": "fox primary school", "country": {"code": "GB", "name": "United Kingdom"}, "location": {"lat": 51.5074986, "lng": -0.1967018}, "postcode": "W8 7PP", "address_2": null, "address_1": null}, "id": "51b5e6b84682591c445ebc44", "uri": "/clubs/51b5e6b84682591c445ebc44"}, {"activated_at": "2013-03-27T13:48:59Z", "contact": {"skype": null}, "venue": {"website": "http://www.longthorpe.peterborough.gov.uk", "city": "Peterborough", "name": "Longthorpe Primary School", "country": {"code": "GB", "name": "United Kingdom"}, "location": {"lat": 52.5754855, "lng": -0.282328}, "postcode": "PE3 9QW", "address_2": "", "address_1": "Bradwell Road"}, "id": "51b5e6b84682591c445ebc47", "uri": "/clubs/51b5e6b84682591c445ebc47"}, {"activated_at": "2013-04-18T19:19:58Z", "contact": {"skype": null}, "venue": {"website": null, "city": "", "name": "The Vine Inter Church Primary School", "country": {"code": "GB", "name": "United Kingdom"}, "location": {"lat": 52.2148966, "lng": -0.0661323}, "postcode": "CB23 6AB", "address_2": "", "address_1": ""}, "id": "51b5e6b84682591c445ebc4a", "uri": "/clubs/51b5e6b84682591c445ebc4a"}, {"activated_at": "2013-04-19T13:31:37Z", "contact": {"skype": null}, "venue": {"website": null, "city": "Brighton", "name": "Moulsecoomb Primary School", "country": {"code": "GB", "name": "United Kingdom"}, "location": {"lat": 50.8494667, "lng": -0.1107047}, "postcode": "BN2 4PA", "address_2": "Lewes Road", "address_1": "The Highway"}, "id": "51b5e6b84682591c445ebc4d", "uri": "/clubs/51b5e6b84682591c445ebc4d"}, {"activated_at": "2012-10-11T15:24:38Z", "contact": {"skype": null}, "venue": {"website": null, "city": "Fraserburgh", "name": "Rosehearty School", "country": {"code": "GB", "name": "United Kingdom"}, "location": {"lat": 57.694985, "lng": -2.1186188}, "postcode": "AB43 7JL", "address_2": "Rosehearty", "address_1": "Pitsligo Street"}, "id": "51b5e6b84682591c445ebc50", "uri": "/clubs/51b5e6b84682591c445ebc50"}, {"activated_at": "2012-11-25T18:47:18Z", "contact": {"skype": null}, "venue": {"website": null, "city": "Halifax", "name": "Ling Bob JI&N School", "country": {"code": "GB", "name": "United Kingdom"}, "location": {"lat": 53.7277641, "lng": -1.8979747}, "postcode": "HX2 0QD", "address_2": "Pellon", "address_1": "Albert Road"}, "id": "51b5e6b84682591c445ebc53", "uri": "/clubs/51b5e6b84682591c445ebc53"}, {"activated_at": "2013-04-22T19:01:56Z", "contact": {"skype": null}, "venue": {"website": null, "city": "Tewkesbury", "name": "Overbury CofE First School", "country": {"code": "GB", "name": "United Kingdom"}, "location": {"lat": 52.0341343, "lng": -2.0631315}, "postcode": "GL20 7NT", "address_2": null, "address_1": "Overbury"}, "id": "51b5e6b94682591c445ebc56", "uri": "/clubs/51b5e6b94682591c445ebc56"}, {"activated_at": "2013-03-08T17:11:45Z", "contact": {"skype": null}, "venue": {"website": null, "city": "Gosport", "name": "Haselworth Primary School", "country": {"code": "GB", "name": "United Kingdom"}, "location": {"lat": 50.7915639, "lng": -1.137595}, "postcode": "PO12 1SQ", "address_2": "", "address_1": "Stone Lane"}, "id": "51b5e6b94682591c445ebc59", "uri": "/clubs/51b5e6b94682591c445ebc59"}, {"activated_at": "2013-04-24T20:20:42Z", "contact": {"skype": null}, "venue": {"website": null, "city": "", "name": "The Vine Inter Church Primary School", "country": {"code": "GB", "name": "United Kingdom"}, "location": {"lat": 52.2148966, "lng": -0.0661323}, "postcode": "CB23 6AB", "address_2": "", "address_1": ""}, "id": "51b5e6b94682591c445ebc5c", "uri": "/clubs/51b5e6b94682591c445ebc5c"}, {"activated_at": "2012-11-29T15:01:26Z", "contact": {"skype": null}, "venue": {"website": null, "city": "Wokingham", "name": "Waverley School", "country": {"code": "GB", "name": "United Kingdom"}, "location": {"lat": 51.4148873, "lng": -0.8201614}, "postcode": "RG40 1SH", "address_2": "Finchampstead", "address_1": "Waverley Way"}, "id": "51b5e6b94682591c445ebc5f", "uri": "/clubs/51b5e6b94682591c445ebc5f"}, {"activated_at": "2012-10-11T15:24:30Z", "contact": {"skype": null}, "venue": {"website": null, "city": "Lewes", "name": "Hamsey Community Primary School", "country": {"code": "GB", "name": "United Kingdom"}, "location": {"lat": 50.9047364, "lng": -0.0076958}, "postcode": "BN8 4SJ", "address_2": "", "address_1": "Cooksbridge"}, "id": "51b5e6b94682591c445ebc62", "uri": "/clubs/51b5e6b94682591c445ebc62"}, {"activated_at": "2013-02-27T17:45:07Z", "contact": {"skype": null}, "venue": {"website": null, "city": "Bradford", "name": "Blakehill Primary School", "country": {"code": "GB", "name": "United Kingdom"}, "location": {"lat": 53.8291093, "lng": -1.7363031}, "postcode": "BD10 8QN", "address_2": "Idle", "address_1": "Highfield Road"}, "id": "51b5e6ba4682591c445ebc65", "uri": "/clubs/51b5e6ba4682591c445ebc65"}, {"activated_at": "2013-04-23T07:25:11Z", "contact": {"skype": null}, "venue": {"website": null, "city": "Bolton", "name": "Masefield Primary School", "country": {"code": "GB", "name": "United Kingdom"}, "location": {"lat": 53.5645122, "lng": -2.3654937}, "postcode": "BL3 1NG", "address_2": null, "address_1": "Masefield Road"}, "id": "51b5e6ba4682591c445ebc68", "uri": "/clubs/51b5e6ba4682591c445ebc68"}, {"activated_at": "2013-02-05T14:34:01Z", "contact": {"skype": null}, "venue": {"website": null, "city": "Scarborough", "name": "Northstead CP School", "country": {"code": "GB", "name": "United Kingdom"}, "location": {"lat": 54.2901706, "lng": -0.4206355}, "postcode": "YO12 6LW", "address_2": "", "address_1": "Maple Drive"}, "id": "51b5e6ba4682591c445ebc6b", "uri": "/clubs/51b5e6ba4682591c445ebc6b"}, {"activated_at": "2013-04-22T14:39:27Z", "contact": {"skype": null}, "venue": {"website": "http://www.chewtonmendip.somerset.sch.uk", "city": "Radstock", "name": "Chewton Mendip Church of England VA Primary School", "country": {"code": "GB", "name": "United Kingdom"}, "location": {"lat": 51.2751718, "lng": -2.5790013}, "postcode": "BA3 4LL", "address_2": null, "address_1": "Chewton Mendip"}, "id": "51b5e6ba4682591c445ebc6e", "uri": "/clubs/51b5e6ba4682591c445ebc6e"}, {"activated_at": "2013-04-23T11:26:45Z", "contact": {"skype": null}, "venue": {"website": "http://www.thaxted.essex.sch.uk", "city": "Dunmow", "name": "Thaxted Primary School", "country": {"code": "GB", "name": "United Kingdom"}, "location": {"lat": 51.9493287, "lng": 0.369548}, "postcode": "CM6 2LW", "address_2": null, "address_1": "Bardfield Road"}, "id": "51b5e6ba4682591c445ebc71", "uri": "/clubs/51b5e6ba4682591c445ebc71"}, {"activated_at": "2012-12-23T13:41:08Z", "contact": {"skype": null}, "venue": {"website": null, "city": "Minehead", "name": "Minehead Middle School", "country": {"code": "GB", "name": "United Kingdom"}, "location": {"lat": 51.2005004, "lng": -3.471729}, "postcode": "TA24 5RH", "address_2": "", "address_1": "Ponsford Road"}, "id": "51b5e6ba4682591c445ebc74", "uri": "/clubs/51b5e6ba4682591c445ebc74"}, {"activated_at": "2013-04-23T12:48:33Z", "contact": {"skype": null}, "venue": {"website": "http://www.fox.rbkc.sch.uk", "city": null, "name": "fox primary school", "country": {"code": "GB", "name": "United Kingdom"}, "location": {"lat": 51.5074986, "lng": -0.1967018}, "postcode": "W8 7PP", "address_2": null, "address_1": null}, "id": "51b5e6bb4682591c445ebc77", "uri": "/clubs/51b5e6bb4682591c445ebc77"}, {"activated_at": "2013-04-24T14:28:49Z", "contact": {"skype": null}, "venue": {"website": null, "city": "Halifax", "name": "The Greetland Academy", "country": {"code": "GB", "name": "United Kingdom"}, "location": {"lat": 53.6898982, "lng": -1.8709603}, "postcode": "HX4 8JB", "address_2": "Greetland", "address_1": "School Street"}, "id": "51b5e6bb4682591c445ebc7a", "uri": "/clubs/51b5e6bb4682591c445ebc7a"}, {"activated_at": "2013-04-24T15:05:53Z", "contact": {"skype": null}, "venue": {"website": "http://www.courtlanejnr.portsmouth.sch.uk", "city": "Portsmouth", "name": "Court Lane Junior School", "country": {"code": "GB", "name": "United Kingdom"}, "location": {"lat": 50.8438471, "lng": -1.0593707}, "postcode": "PO6 2PP", "address_2": null, "address_1": "Hilary Avenue"}, "id": "51b5e6bb4682591c445ebc7d", "uri": "/clubs/51b5e6bb4682591c445ebc7d"}, {"activated_at": "2013-04-25T09:54:09Z", "contact": {"skype": null}, "venue": {"website": null, "city": null, "name": "Waterbeach School", "country": {"code": "GB", "name": "United Kingdom"}, "location": {"lat": 52.2694983, "lng": 0.190448}, "postcode": "CB25 9JU", "address_2": null, "address_1": null}, "id": "51b5e6bb4682591c445ebc80", "uri": "/clubs/51b5e6bb4682591c445ebc80"}, {"activated_at": "2012-10-31T18:53:29Z", "contact": {"skype": null}, "venue": {"website": null, "city": "Nottingham", "name": "Walter Halls Primary & Early Years School", "country": {"code": "GB", "name": "United Kingdom"}, "location": {"lat": 52.9791388, "lng": -1.1327777}, "postcode": "NG3 5HS", "address_2": "Mapperley", "address_1": "Querneby Road"}, "id": "51b5e6bb4682591c445ebc83", "uri": "/clubs/51b5e6bb4682591c445ebc83"}, {"activated_at": "2013-04-25T17:39:30Z", "contact": {"skype": null}, "venue": {"website": null, "city": "Wellingborough", "name": "Irchester Community Primary School", "country": {"code": "GB", "name": "United Kingdom"}, "location": {"lat": 52.2824095, "lng": -0.6464733}, "postcode": "NN29 7AZ", "address_2": "Irchester", "address_1": "School Lane"}, "id": "51b5e6bc4682591c445ebc86", "uri": "/clubs/51b5e6bc4682591c445ebc86"}, {"activated_at": "2013-04-24T16:17:30Z", "contact": {"skype": null}, "venue": {"website": null, "city": "Sheffield", "name": "Rainbow Forge Primary School", "country": {"code": "GB", "name": "United Kingdom"}, "location": {"lat": 53.344334, "lng": -1.3691714}, "postcode": "S12 4LQ", "address_2": null, "address_1": "Beighton Road"}, "id": "51b5e6bc4682591c445ebc89", "uri": "/clubs/51b5e6bc4682591c445ebc89"}, {"activated_at": "2013-04-24T14:21:52Z", "contact": {"skype": null}, "venue": {"website": null, "city": "Nottingham", "name": "Dovedale Primary School", "country": {"code": "GB", "name": "United Kingdom"}, "location": {"lat": 52.8905178, "lng": -1.2941255}, "postcode": "NG10 3HU", "address_2": null, "address_1": "Dovedale Avenue"}, "id": "51b5e6bc4682591c445ebc8c", "uri": "/clubs/51b5e6bc4682591c445ebc8c"}, {"activated_at": "2013-02-11T15:24:04Z", "contact": {"skype": null}, "venue": {"website": null, "city": "Chippenham", "name": "Luckington Primary School", "country": {"code": "GB", "name": "United Kingdom"}, "location": {"lat": 51.554562, "lng": -2.2427551}, "postcode": "SN14 6NU", "address_2": "Luckington", "address_1": "The Green"}, "id": "51b5e6bc4682591c445ebc8f", "uri": "/clubs/51b5e6bc4682591c445ebc8f"}, {"activated_at": "2013-04-26T13:20:18Z", "contact": {"skype": null}, "venue": {"website": "http://www.netherfieldprimaryschool.com", "city": "Nottingham", "name": "Netherfield Primary School", "country": {"code": "GB", "name": "United Kingdom"}, "location": {"lat": 52.9663264, "lng": -1.0738963}, "postcode": "NG4 2LR", "address_2": null, "address_1": "Chandos Street"}, "id": "51b5e6bc4682591c445ebc92", "uri": "/clubs/51b5e6bc4682591c445ebc92"}, {"activated_at": "2013-04-26T16:19:12Z", "contact": {"skype": null}, "venue": {"website": null, "city": null, "name": "harvey scratch", "country": {"code": "GB", "name": "United Kingdom"}, "location": {"lat": 52.924623, "lng": -0.6402164}, "postcode": "ng31 8dt", "address_2": null, "address_1": null}, "id": "51b5e6bc4682591c445ebc95", "uri": "/clubs/51b5e6bc4682591c445ebc95"}, {"activated_at": "2013-04-27T11:40:17Z", "contact": {"skype": null}, "venue": {"website": "http://www.canadahill.devon.sch.uk", "city": "Newton Abbot", "name": "Canada Hill Community Primary School", "country": {"code": "GB", "name": "United Kingdom"}, "location": {"lat": 50.5212633, "lng": -3.6270412}, "postcode": "TQ12 6YS", "address_2": null, "address_1": "Abbotsridge Drive"}, "id": "51b5e6bc4682591c445ebc98", "uri": "/clubs/51b5e6bc4682591c445ebc98"}, {"activated_at": "2013-04-27T18:50:53Z", "contact": {"skype": null}, "venue": {"website": null, "city": null, "name": "The Leys ", "country": {"code": "GB", "name": "United Kingdom"}, "location": {"lat": 52.19701, "lng": 0.1217942}, "postcode": "CB2 7AD", "address_2": null, "address_1": null}, "id": "51b5e6bd4682591c445ebc9b", "uri": "/clubs/51b5e6bd4682591c445ebc9b"}, {"activated_at": "2013-04-28T15:37:30Z", "contact": {"skype": null}, "venue": {"website": null, "city": "Felixstowe", "name": "Kingsfleet Primary School", "country": {"code": "GB", "name": "United Kingdom"}, "location": {"lat": 51.9777967, "lng": 1.3729813}, "postcode": "IP11 9LY", "address_2": null, "address_1": "Ferry Road"}, "id": "51b5e6bd4682591c445ebc9e", "uri": "/clubs/51b5e6bd4682591c445ebc9e"}, {"activated_at": "2013-01-24T11:47:08Z", "contact": {"skype": null}, "venue": {"website": null, "city": "Norwich", "name": "Frettenham Primary Partnership School", "country": {"code": "GB", "name": "United Kingdom"}, "location": {"lat": 52.7092272, "lng": 1.3257922}, "postcode": "NR12 7LL", "address_2": "Frettenham", "address_1": "School Road"}, "id": "51b5e6bd4682591c445ebca1", "uri": "/clubs/51b5e6bd4682591c445ebca1"}, {"activated_at": "2013-04-29T11:27:05Z", "contact": {"skype": null}, "venue": {"website": "http://www.hatchride.wokingham.sch.uk/", "city": "Crowthorne", "name": "Hatch Ride Primary School", "country": {"code": "GB", "name": "United Kingdom"}, "location": {"lat": 51.3802976, "lng": -0.7956460999999999}, "postcode": "RG45 6LP", "address_2": null, "address_1": "Hatch Ride"}, "id": "51b5e6bd4682591c445ebca4", "uri": "/clubs/51b5e6bd4682591c445ebca4"}, {"activated_at": "2013-04-29T16:07:41Z", "contact": {"skype": null}, "venue": {"website": null, "city": "Renfrew", "name": "St James' Primary School", "country": {"code": "GB", "name": "United Kingdom"}, "location": {"lat": 55.873448, "lng": -4.3961107}, "postcode": "PA4 8ET", "address_2": "", "address_1": "Albert Road"}, "id": "51b5e6bd4682591c445ebca7", "uri": "/clubs/51b5e6bd4682591c445ebca7"}, {"activated_at": "2013-02-21T13:50:34Z", "contact": {"skype": null}, "venue": {"website": null, "city": "Market Rasen", "name": "Legsby", "country": {"code": "GB", "name": "United Kingdom"}, "location": {"lat": 53.3549322, "lng": -0.2944976}, "postcode": "LN8 3QW", "address_2": "", "address_1": "Legsby"}, "id": "51b5e6bd4682591c445ebcaa", "uri": "/clubs/51b5e6bd4682591c445ebcaa"}, {"activated_at": "2013-04-25T14:49:51Z", "contact": {"skype": null}, "venue": {"website": "http://www.huttonrudby.n-yorks.sch.uk/", "city": "Yarm", "name": "Hutton Rudby Primary School", "country": {"code": "GB", "name": "United Kingdom"}, "location": {"lat": 54.4484213, "lng": -1.2820154}, "postcode": "TS15 0EQ", "address_2": null, "address_1": "Doctors Lane"}, "id": "51b5e6be4682591c445ebcad", "uri": "/clubs/51b5e6be4682591c445ebcad"}, {"activated_at": "2012-10-11T15:24:53Z", "contact": {"skype": null}, "venue": {"website": null, "city": "Letchworth Garden City", "name": "Norton St. Nicholas CofE (VA) Primary", "country": {"code": "GB", "name": "United Kingdom"}, "location": {"lat": 51.9929525, "lng": -0.210035}, "postcode": "SG6 1AG", "address_2": "", "address_1": "Norton Road"}, "id": "51b5e6be4682591c445ebcb0", "uri": "/clubs/51b5e6be4682591c445ebcb0"}, {"activated_at": "2013-05-01T11:05:23Z", "contact": {"skype": null}, "venue": {"website": "http://www.westfields-jun.hants.sch.uk", "city": "Yateley", "name": "Westfields Junior School", "country": {"code": "GB", "name": "United Kingdom"}, "location": {"lat": 51.33797269999999, "lng": -0.8397494}, "postcode": "GU46 6NN", "address_2": null, "address_1": "School Lane"}, "id": "51b5e6be4682591c445ebcb3", "uri": "/clubs/51b5e6be4682591c445ebcb3"}, {"activated_at": "2013-05-01T11:29:37Z", "contact": {"skype": null}, "venue": {"website": "http://www.castlecombe.bromley.sch.uk", "city": "London", "name": "Castlecombe Primary School", "country": {"code": "GB", "name": "United Kingdom"}, "location": {"lat": 51.42475839999999, "lng": 0.0457678}, "postcode": "SE9 4AT", "address_2": null, "address_1": "Castlecombe Road"}, "id": "51b5e6be4682591c445ebcb6", "uri": "/clubs/51b5e6be4682591c445ebcb6"}, {"activated_at": "2013-05-02T08:41:06Z", "contact": {"skype": null}, "venue": {"website": null, "city": "Peterhead", "name": "Longside School", "country": {"code": "GB", "name": "United Kingdom"}, "location": {"lat": 57.51515509999999, "lng": -1.9400264}, "postcode": "AB42 4TP", "address_2": "Longside", "address_1": "22 Inn Brae"}, "id": "51b5e6be4682591c445ebcb9", "uri": "/clubs/51b5e6be4682591c445ebcb9"}, {"activated_at": "2013-05-02T09:11:13Z", "contact": {"skype": null}, "venue": {"website": null, "city": null, "name": "Cecil Jones College", "country": {"code": "GB", "name": "United Kingdom"}, "location": {"lat": 51.553248, "lng": 0.7293234}, "postcode": "SS2 4BU", "address_2": null, "address_1": null}, "id": "51b5e6bf4682591c445ebcbc", "uri": "/clubs/51b5e6bf4682591c445ebcbc"}, {"activated_at": "2013-05-02T14:09:11Z", "contact": {"skype": null}, "venue": {"website": null, "city": null, "name": "Sandringham Primary school", "country": {"code": "GB", "name": "United Kingdom"}, "location": {"lat": 51.546752, "lng": 0.0346618}, "postcode": "E7 8ED", "address_2": null, "address_1": null}, "id": "51b5e6bf4682591c445ebcbf", "uri": "/clubs/51b5e6bf4682591c445ebcbf"}, {"activated_at": "2013-05-02T14:51:02Z", "contact": {"skype": null}, "venue": {"website": null, "city": null, "name": "Dundee Contemporary Arts (actually not a school)", "country": {"code": "GB", "name": "United Kingdom"}, "location": {"lat": 56.4572565, "lng": -2.9747291}, "postcode": "DD1 4DY", "address_2": null, "address_1": null}, "id": "51b5e6bf4682591c445ebcc2", "uri": "/clubs/51b5e6bf4682591c445ebcc2"}, {"activated_at": "2012-12-06T16:36:01Z", "contact": {"skype": null}, "venue": {"website": null, "city": "London", "name": "International Community School", "country": {"code": "GB", "name": "United Kingdom"}, "location": {"lat": 51.5240625, "lng": -0.1510571}, "postcode": "NW1 4PT", "address_2": "", "address_1": "4 York Terrace East"}, "id": "51b5e6bf4682591c445ebcc5", "uri": "/clubs/51b5e6bf4682591c445ebcc5"}, {"activated_at": "2013-01-09T12:48:45Z", "contact": {"skype": null}, "venue": {"website": null, "city": "Rathfriland", "name": "St Marys Primary School", "country": {"code": "GB", "name": "United Kingdom"}, "location": {"lat": 54.2331079, "lng": -6.0313959}, "postcode": "BT34 5WE", "address_2": "", "address_1": "67 Downpatrick Street"}, "id": "51b5e6bf4682591c445ebcc8", "uri": "/clubs/51b5e6bf4682591c445ebcc8"}, {"activated_at": "2013-05-03T13:05:33Z", "contact": {"skype": null}, "venue": {"website": null, "city": null, "name": "St Dominics School", "country": {"code": "GB", "name": "United Kingdom"}, "location": {"lat": 54.5928614, "lng": -5.958648999999999}, "postcode": "BT126AE", "address_2": null, "address_1": null}, "id": "51b5e6bf4682591c445ebccb", "uri": "/clubs/51b5e6bf4682591c445ebccb"}, {"activated_at": "2013-05-03T13:44:20Z", "contact": {"skype": null}, "venue": {"website": "http://www.sevenoaks-pri.kent.sch.uk/", "city": "Sevenoaks", "name": "Sevenoaks Primary School", "country": {"code": "GB", "name": "United Kingdom"}, "location": {"lat": 51.284599299999996, "lng": 0.1861493}, "postcode": "TN13 3LB", "address_2": null, "address_1": "Bradbourne Park Road"}, "id": "51b5e6bf4682591c445ebcce", "uri": "/clubs/51b5e6bf4682591c445ebcce"}, {"activated_at": "2013-05-03T14:26:19Z", "contact": {"skype": null}, "venue": {"website": "http://www.hadleigh-pri.suffolk.sch.uk", "city": "Hadleigh", "name": "Hadleigh Community Primary School", "country": {"code": "GB", "name": "United Kingdom"}, "location": {"lat": 52.0414776, "lng": 0.9632023}, "postcode": "IP7 5HQ", "address_2": null, "address_1": "Station Road"}, "id": "51b5e6c04682591c445ebcd1", "uri": "/clubs/51b5e6c04682591c445ebcd1"}, {"activated_at": "2013-05-08T13:50:15Z", "contact": {"skype": null}, "venue": {"website": null, "city": "Peterhead", "name": "Longside School", "country": {"code": "GB", "name": "United Kingdom"}, "location": {"lat": 57.51515509999999, "lng": -1.9400264}, "postcode": "AB42 4TP", "address_2": "Longside", "address_1": "22 Inn Brae"}, "id": "51b5e6c04682591c445ebcd4", "uri": "/clubs/51b5e6c04682591c445ebcd4"}, {"activated_at": "2013-05-15T08:53:42Z", "contact": {"skype": null}, "venue": {"website": null, "city": null, "name": "Brandlehow Primary", "country": {"code": "GB", "name": "United Kingdom"}, "location": {"lat": 51.4613786, "lng": -0.2074167}, "postcode": "SW15 2ED", "address_2": null, "address_1": null}, "id": "51b5e6c04682591c445ebcd7", "uri": "/clubs/51b5e6c04682591c445ebcd7"}, {"activated_at": "2013-05-07T20:29:31Z", "contact": {"skype": null}, "venue": {"website": null, "city": "Halifax", "name": "Savile Park Primary School", "country": {"code": "GB", "name": "United Kingdom"}, "location": {"lat": 53.71401170000001, "lng": -1.8760801}, "postcode": "HX1 3ER", "address_2": "", "address_1": "Moorfield Street"}, "id": "51b5e6c04682591c445ebcdb", "uri": "/clubs/51b5e6c04682591c445ebcdb"}, {"activated_at": "2013-05-08T12:35:55Z", "contact": {"skype": null}, "venue": {"website": null, "city": null, "name": "St. John with St. Mark Primary School", "country": {"code": "GB", "name": "United Kingdom"}, "location": {"lat": 53.6033979, "lng": -2.2948561}, "postcode": "BL9 5EE", "address_2": null, "address_1": null}, "id": "51b5e6c04682591c445ebcde", "uri": "/clubs/51b5e6c04682591c445ebcde"}, {"activated_at": "2013-05-08T12:55:36Z", "contact": {"skype": null}, "venue": {"website": null, "city": null, "name": "St Johns Kearsley ", "country": {"code": "GB", "name": "United Kingdom"}, "location": {"lat": 53.54781639999999, "lng": -2.388388}, "postcode": "BL48AP", "address_2": null, "address_1": null}, "id": "51b5e6c04682591c445ebce1", "uri": "/clubs/51b5e6c04682591c445ebce1"}, {"activated_at": "2013-05-09T10:27:11Z", "contact": {"skype": null}, "venue": {"website": null, "city": null, "name": "Bousfield Primary school", "country": {"code": "GB", "name": "United Kingdom"}, "location": {"lat": 51.4902228, "lng": -0.1861191}, "postcode": "SW5 0DJ", "address_2": null, "address_1": null}, "id": "51b5e6c14682591c445ebce4", "uri": "/clubs/51b5e6c14682591c445ebce4"}, {"activated_at": "2013-05-10T11:26:27Z", "contact": {"skype": null}, "venue": {"website": null, "city": "Rotherham", "name": "The Hill Primary Academy", "country": {"code": "GB", "name": "United Kingdom"}, "location": {"lat": 53.54688549999999, "lng": -1.2991096}, "postcode": "S63 0DS", "address_2": null, "address_1": "Tudor Street"}, "id": "51b5e6c14682591c445ebce7", "uri": "/clubs/51b5e6c14682591c445ebce7"}, {"activated_at": "2013-05-10T11:40:23Z", "contact": {"skype": null}, "venue": {"website": null, "city": "London", "name": "Bellenden Primary School", "country": {"code": "GB", "name": "United Kingdom"}, "location": {"lat": 51.4667275, "lng": -0.0711174}, "postcode": "SE15 4PF", "address_2": null, "address_1": "Reedham Street"}, "id": "51b5e6c14682591c445ebcea", "uri": "/clubs/51b5e6c14682591c445ebcea"}, {"activated_at": "2012-10-11T15:23:58Z", "contact": {"skype": null}, "venue": {"website": null, "city": "Blandford Forum", "name": "St Nicholas CE VA Primary School", "country": {"code": "GB", "name": "United Kingdom"}, "location": {"lat": 50.9110055, "lng": -2.2372265}, "postcode": "DT11 8EL", "address_2": "Child Okeford", "address_1": "Station Road"}, "id": "51b5e6c14682591c445ebced", "uri": "/clubs/51b5e6c14682591c445ebced"}, {"activated_at": "2013-05-12T07:24:17Z", "contact": {"skype": null}, "venue": {"website": null, "city": null, "name": "cwmclydach primary school", "country": {"code": "GB", "name": "United Kingdom"}, "location": {"lat": 51.6268953, "lng": -3.4774422}, "postcode": "cf402bq", "address_2": null, "address_1": null}, "id": "51b5e6c14682591c445ebcf0", "uri": "/clubs/51b5e6c14682591c445ebcf0"}, {"activated_at": "2013-05-13T07:27:06Z", "contact": {"skype": null}, "venue": {"website": null, "city": null, "name": "Bisham School", "country": {"code": "GB", "name": "United Kingdom"}, "location": {"lat": 51.5608414, "lng": -0.7777413}, "postcode": "SL71RW", "address_2": null, "address_1": null}, "id": "51b5e6c14682591c445ebcf3", "uri": "/clubs/51b5e6c14682591c445ebcf3"}, {"activated_at": "2013-02-27T14:52:09Z", "contact": {"skype": null}, "venue": {"website": null, "city": "Pwllheli", "name": "Ysgol Tudweiliog", "country": {"code": "GB", "name": "United Kingdom"}, "location": {"lat": 52.8987994, "lng": -4.6223145}, "postcode": "LL53 8ND", "address_2": "", "address_1": "Tudweiliog"}, "id": "51b5e6c14682591c445ebcf6", "uri": "/clubs/51b5e6c14682591c445ebcf6"}, {"activated_at": "2013-02-27T14:54:43Z", "contact": {"skype": null}, "venue": {"website": null, "city": "Pwllheli", "name": "Ysgol Llangybi", "country": {"code": "GB", "name": "United Kingdom"}, "location": {"lat": 52.9423408, "lng": -4.3503013}, "postcode": "LL53 6DQ", "address_2": "", "address_1": "Llangybi"}, "id": "51b5e6c24682591c445ebcf9", "uri": "/clubs/51b5e6c24682591c445ebcf9"}, {"activated_at": "2013-02-28T12:41:39Z", "contact": {"skype": null}, "venue": {"website": null, "city": "London", "name": "Merton Park Primary", "country": {"code": "GB", "name": "United Kingdom"}, "location": {"lat": 51.4097677, "lng": -0.2013692}, "postcode": "SW19 3HQ", "address_2": "Wimbledon", "address_1": "Church Lane"}, "id": "51b5e6c24682591c445ebcfc", "uri": "/clubs/51b5e6c24682591c445ebcfc"}, {"activated_at": "2013-02-28T15:42:55Z", "contact": {"skype": null}, "venue": {"website": null, "city": "WEDNESBURY", "name": "Park Hill Primary School", "country": {"code": "GB", "name": "United Kingdom"}, "location": {"lat": 52.5578417, "lng": -1.9962985}, "postcode": "WS10 0TJ", "address_2": "", "address_1": "CORONATION ROAD"}, "id": "51b5e6c24682591c445ebcff", "uri": "/clubs/51b5e6c24682591c445ebcff"}, {"activated_at": "2013-02-28T19:32:08Z", "contact": {"skype": null}, "venue": {"website": null, "city": "Cwmbran", "name": "St. David's Primary School", "country": {"code": "GB", "name": "United Kingdom"}, "location": {"lat": 51.6630397, "lng": -3.0193695}, "postcode": "NP44 1UF", "address_2": "Pontrhydyrun", "address_1": "Caldicot Way"}, "id": "51b5e6c24682591c445ebd02", "uri": "/clubs/51b5e6c24682591c445ebd02"}, {"activated_at": "2013-03-01T10:36:27Z", "contact": {"skype": null}, "venue": {"website": null, "city": "Lytham St Annes", "name": "AKS Lytham", "country": {"code": "GB", "name": "United Kingdom"}, "location": {"lat": 53.7578445, "lng": -3.0305517}, "postcode": "FY8 2DT", "address_2": "Clifton Drive", "address_1": "KEQMS"}, "id": "51b5e6c24682591c445ebd05", "uri": "/clubs/51b5e6c24682591c445ebd05"}, {"activated_at": "2013-02-05T14:40:28Z", "contact": {"skype": null}, "venue": {"website": null, "city": "Stamford", "name": "Copthill School", "country": {"code": "GB", "name": "United Kingdom"}, "location": {"lat": 52.6465826, "lng": -0.4170862}, "postcode": "PE9 3AD", "address_2": "", "address_1": "Uffington"}, "id": "51b5e6c24682591c445ebd08", "uri": "/clubs/51b5e6c24682591c445ebd08"}, {"activated_at": "2013-02-06T20:04:48Z", "contact": {"skype": null}, "venue": {"website": null, "city": "Lake", "name": "Broadlea Primary School", "country": {"code": "GB", "name": "United Kingdom"}, "location": {"lat": 50.6470174, "lng": -1.1781067}, "postcode": "PO36 9PE", "address_2": "", "address_1": "Newport Road"}, "id": "51b5e6c24682591c445ebd0b", "uri": "/clubs/51b5e6c24682591c445ebd0b"}, {"activated_at": "2013-02-07T17:20:51Z", "contact": {"skype": null}, "venue": {"website": null, "city": "Bampton", "name": "Clanfield Primary School", "country": {"code": "GB", "name": "United Kingdom"}, "location": {"lat": 51.713672, "lng": -1.5888339}, "postcode": "OX18 2SP", "address_2": "Main Street", "address_1": "Clanfield Primary School"}, "id": "51b5e6c24682591c445ebd0e", "uri": "/clubs/51b5e6c24682591c445ebd0e"}, {"activated_at": "2013-02-10T19:51:32Z", "contact": {"skype": null}, "venue": {"website": null, "city": "Lagos", "name": "St. Saviour's School Ikoyi", "country": {"code": "GB", "name": "United Kingdom"}, "location": {"lat": 51.8240696, "lng": -2.7141045}, "postcode": "NP25 3HP", "address_2": "", "address_1": "54 Alexanda Avenue Ikoyi"}, "id": "51b5e6c34682591c445ebd11", "uri": "/clubs/51b5e6c34682591c445ebd11"}, {"activated_at": "2013-02-10T20:01:02Z", "contact": {"skype": null}, "venue": {"website": null, "city": "Slough", "name": "IQRA Primary School", "country": {"code": "GB", "name": "United Kingdom"}, "location": {"lat": 51.5163166, "lng": -0.5814579}, "postcode": "SL2 5FF", "address_2": "", "address_1": "Wexham Road"}, "id": "51b5e6c34682591c445ebd14", "uri": "/clubs/51b5e6c34682591c445ebd14"}, {"activated_at": "2013-02-10T21:13:53Z", "contact": {"skype": null}, "venue": {"website": null, "city": "Haywards Heath", "name": "Cumnor House School", "country": {"code": "GB", "name": "United Kingdom"}, "location": {"lat": 51.0380931, "lng": 0.0031971}, "postcode": "RH17 7HT", "address_2": "Danehill", "address_1": "London Road, "}, "id": "51b5e6c34682591c445ebd17", "uri": "/clubs/51b5e6c34682591c445ebd17"}, {"activated_at": "2013-02-15T11:01:42Z", "contact": {"skype": null}, "venue": {"website": null, "city": "Denton", "name": "Russell Scott Primary", "country": {"code": "GB", "name": "United Kingdom"}, "location": {"lat": 53.460439, "lng": -2.1168203}, "postcode": "M34 3LQ", "address_2": "", "address_1": "Clare Street"}, "id": "51b5e6c34682591c445ebd1a", "uri": "/clubs/51b5e6c34682591c445ebd1a"}, {"activated_at": "2013-02-19T11:37:43Z", "contact": {"skype": null}, "venue": {"website": null, "city": "Denbury", "name": "Denbury Primary School", "country": {"code": "GB", "name": "United Kingdom"}, "location": {"lat": 50.5077393, "lng": -3.6613709}, "postcode": "TQ12 6DP", "address_2": "", "address_1": "West Street"}, "id": "51b5e6c34682591c445ebd1d", "uri": "/clubs/51b5e6c34682591c445ebd1d"}, {"activated_at": "2013-02-25T21:38:50Z", "contact": {"skype": null}, "venue": {"website": null, "city": "Bristol", "name": "St Bonaventure's Primary", "country": {"code": "GB", "name": "United Kingdom"}, "location": {"lat": 51.465586, "lng": -2.5977911}, "postcode": "BS6 6AL", "address_2": "", "address_1": "Egerton Road"}, "id": "51b5e6c34682591c445ebd20", "uri": "/clubs/51b5e6c34682591c445ebd20"}, {"activated_at": "2013-03-26T16:04:59Z", "contact": {"skype": null}, "venue": {"website": "http://www.prescotprimary.demon.co.uk/", "city": "Prescot", "name": "Prescot Primary School", "country": {"code": "GB", "name": "United Kingdom"}, "location": {"lat": 53.4286594, "lng": -2.7942551}, "postcode": "L34 2TA", "address_2": "", "address_1": "Maryville Rd"}, "id": "51b5e6c44682591c445ebd23", "uri": "/clubs/51b5e6c44682591c445ebd23"}, {"activated_at": "2013-03-27T09:36:21Z", "contact": {"skype": null}, "venue": {"website": null, "city": "Yeovil", "name": "West Coker Primary School", "country": {"code": "GB", "name": "United Kingdom"}, "location": {"lat": 50.91897, "lng": -2.6904255}, "postcode": "BA22 9AS", "address_2": "West Coker", "address_1": "High Street"}, "id": "51b5e6c44682591c445ebd26", "uri": "/clubs/51b5e6c44682591c445ebd26"}, {"activated_at": "2013-03-28T09:28:39Z", "contact": {"skype": null}, "venue": {"website": "http://www.martinswood.herts.sch.uk/", "city": "Stevenage", "name": "Martins Wood Primary School", "country": {"code": "GB", "name": "United Kingdom"}, "location": {"lat": 51.9195057, "lng": -0.173637}, "postcode": "SG1 5RT", "address_2": "", "address_1": "Muildmay Road"}, "id": "51b5e6c44682591c445ebd29", "uri": "/clubs/51b5e6c44682591c445ebd29"}, {"activated_at": "2013-03-29T13:14:42Z", "contact": {"skype": null}, "venue": {"website": null, "city": "Manchester", "name": "Didsbury C of E Primary School", "country": {"code": "GB", "name": "United Kingdom"}, "location": {"lat": 53.4158964, "lng": -2.2309375}, "postcode": "M20 6RL", "address_2": "Didsbury", "address_1": "Elm Grove"}, "id": "51b5e6c44682591c445ebd2c", "uri": "/clubs/51b5e6c44682591c445ebd2c"}, {"activated_at": "2013-03-29T16:33:48Z", "contact": {"skype": null}, "venue": {"website": null, "city": "HULL", "name": "AYAH", "country": {"code": "GB", "name": "United Kingdom"}, "location": {"lat": 53.7322205, "lng": -0.3959487}, "postcode": "HU4 6RG", "address_2": "", "address_1": "7 WEST GROVE"}, "id": "51b5e6c44682591c445ebd2f", "uri": "/clubs/51b5e6c44682591c445ebd2f"}, {"activated_at": "2013-03-29T16:45:22Z", "contact": {"skype": null}, "venue": {"website": null, "city": "Worcester", "name": "Lyppard Grange Primary School", "country": {"code": "GB", "name": "United Kingdom"}, "location": {"lat": 52.2000717, "lng": -2.1778729}, "postcode": "WR4 0DZ", "address_2": "", "address_1": "Ankerage Green"}, "id": "51b5e6c44682591c445ebd32", "uri": "/clubs/51b5e6c44682591c445ebd32"}, {"activated_at": "2013-03-01T15:17:02Z", "contact": {"skype": null}, "venue": {"website": null, "city": "Sunderland", "name": "St Aidans Catholic School", "country": {"code": "GB", "name": "United Kingdom"}, "location": {"lat": 54.8930125, "lng": -1.3883862}, "postcode": "SR2 7HJ", "address_2": "Ashbrooke", "address_1": "Willow Bank Road"}, "id": "51b5e6c54682591c445ebd35", "uri": "/clubs/51b5e6c54682591c445ebd35"}, {"activated_at": "2013-03-03T19:57:18Z", "contact": {"skype": null}, "venue": {"website": null, "city": "Fleet", "name": "Elvetham Heath Primary School", "country": {"code": "GB", "name": "United Kingdom"}, "location": {"lat": 51.2918118, "lng": -0.8563753}, "postcode": "GU51 1DP", "address_2": "Elvetham Heath", "address_1": "The Key"}, "id": "51b5e6c54682591c445ebd38", "uri": "/clubs/51b5e6c54682591c445ebd38"},