{"clubs":[{"activated_at":"2013-06-14T11:40:57Z","contact":{"skype":"apache.supporto"},"venue":{"website":"http://www.apachegroup.biz","city":"Treviso","name":"Apache Grup","country":{"code":"IT","name":"Italy"},"location":{"lat":45.6856605,"lng":12.20608089999996},"postcode":"31100","address_2":"","address_1":"Via Feltrina 33"},"id":"51baf339d680050df9ed8f06","uri":"/clubs/51baf339d680050df9ed8f06"},{"activated_at":"2014-03-10T10:31:15Z","contact":{"skype":"technobroadcast"},"venue":{"website":"http://www.unipegaso.it","city":"Rome","name":"Università Telematica Pegaso","country":{"code":"IT","name":"Italy"},"location":{"lat":41.8975328,"lng":12.4723088},"postcode":"00186","address_2":"","address_1":"Via di San Pantaleo 66"},"id":"531d9473d6800508cd76b846","uri":"/clubs/531d9473d6800508cd76b846"},{"activated_at":"2014-03-11T18:05:41Z","contact":{"skype":"technobroadcast"},"venue":{"website":"http://www.unipegaso.it","city":"Napoli","name":"Università Telematica Pegaso","country":{"code":"IT","name":"Italy"},"location":{"lat":40.8371773,"lng":14.2484145},"postcode":"80132","address_2":"","address_1":"Piazza Trieste e Trento, 48"},"id":"531f5075d6800508d376bd15","uri":"/clubs/531f5075d6800508d376bd15"},{"activated_at":"2014-03-11T18:08:34Z","contact":{"skype":"technobroadcast"},"venue":{"website":"http://www.unipegaso.it","city":"Torino","name":"Palazzo Saluzzo Paesana - Università Telematica Pegaso","country":{"code":"IT","name":"Italy"},"location":{"lat":45.0755556,"lng":7.676165600000001},"postcode":"10122","address_2":"","address_1":"Via della Consolata, 1 bis"},"id":"531f5122d6800508d376bd18","uri":"/clubs/531f5122d6800508d376bd18"},{"activated_at":"2014-03-11T18:10:02Z","contact":{"skype":"technobroadcast"},"venue":{"website":"http://www.unipegaso.it","city":"Palermo","name":"Palazzo Mazzarino - Università Telematica Pegaso","country":{"code":"IT","name":"Italy"},"location":{"lat":38.1190368,"lng":13.3594607},"postcode":"90133","address_2":"","address_1":"Via Maqueda, 383"},"id":"531f517ad6800508d376bd1b","uri":"/clubs/531f517ad6800508d376bd1b"},{"activated_at":"2014-03-11T18:11:48Z","contact":{"skype":"technobroadcast"},"venue":{"website":"http://www.unipegaso.it","city":"Bologna","name":"Collegio San Luigi - Università Telematica Pegaso","country":{"code":"IT","name":"Italy"},"location":{"lat":44.4883184,"lng":11.339823},"postcode":"40122","address_2":"","address_1":"Via D'Azeglio, 55"},"id":"531f51e4d6800508d376bd1e","uri":"/clubs/531f51e4d6800508d376bd1e"},{"activated_at":"2014-03-11T18:13:13Z","contact":{"skype":"technobroadcast"},"venue":{"website":"http://www.unipegaso.it","city":"Milano","name":"Università Telematica Pegaso","country":{"code":"IT","name":"Italy"},"location":{"lat":45.491162,"lng":9.1618932},"postcode":"20155","address_2":"","address_1":"Via Generale Mac Mahon, 92"},"id":"531f5239d6800508d376bd21","uri":"/clubs/531f5239d6800508d376bd21"},{"activated_at":"2014-06-08T20:12:02Z","contact":{"skype":""},"venue":{"website":null,"city":"Pedara  (CT)","name":"Fare Nostrum","country":{"code":"IT","name":"Italy"},"location":{"lat":37.6186159,"lng":15.0608233},"postcode":"95030","address_2":"","address_1":"Via due palmenti, 21"},"id":"5394b582d680050679d91c0c","uri":"/clubs/5394b582d680050679d91c0c"},{"activated_at":"2014-08-11T00:07:22Z","contact":{"skype":"testclub"},"venue":{"website":null,"city":"Moncalieri","name":"test","country":{"code":"IT","name":"Italy"},"location":{"lat":44.98396229999999,"lng":7.7166044},"postcode":"10024","address_2":"","address_1":"strada marse 23"},"id":"53e7fb2ad680050679d91c72","uri":"/clubs/53e7fb2ad680050679d91c72"},{"activated_at":"2014-08-21T17:31:41Z","contact":{"skype":"codeclubit"},"venue":{"website":null,"city":"Moncalieri","name":"codeclubit","country":{"code":"IT","name":"Italy"},"location":{"lat":44.98396229999999,"lng":7.7166044},"postcode":"10024","address_2":"","address_1":"Strada Marsè, 23"},"id":"53f61eedd680050679d91c83","uri":"/clubs/53f61eedd680050679d91c83"},{"activated_at":"2014-08-27T16:04:44Z","contact":{"skype":""},"venue":{"website":null,"city":"Brescia","name":"Fare Nostrum","country":{"code":"IT","name":"Italy"},"location":{"lat":45.5460037,"lng":10.1622026},"postcode":"25134","address_2":"","address_1":"Via Valsaviore, 12"},"id":"53fdf38dd68005067fd91c83","uri":"/clubs/53fdf38dd68005067fd91c83"}]}